{"distance": 553.984073804, "transactions": [], "review_count": 106, "display_phone": "(415) 829-7005", "id": "wine-down-san-francisco", "rating": 5.0, "image_url": "https://s3-media3.fl.yelpcdn.com/bphoto/xsVtEII6m0bX9qykFXyjHA/o.jpg", "price": "$$", "categories": [{"alias": "wine_bars", "title": "Wine Bars"}, {"alias": "beerbar", "title": "Beer Bar"}, {"alias": "venues", "title": "Venues & Event Spaces"}], "coordinates": {"latitude": 37.7840836132872, "longitude": -122.39831333801}, "url": "https://www.yelp.com/biz/wine-down-san-francisco?adjust_creative=Ac1Jga9ln_zF96nUd9t7WA&utm_campaign=yelp_api_v3&utm_medium=api_v3_business_search&utm_source=Ac1Jga9ln_zF96nUd9t7WA", "location": {"state": "CA", "address2": "", "city": "San Francisco", "address1": "685 Folsom St", "display_address": ["685 Folsom St", "San Francisco, CA 94107"], "zip_code": "94107", "country": "US", "address3": ""}, "phone": "+14158297005", "name": "Wine Down", "is_closed": false}
{"distance": 308.440632644, "transactions": [], "review_count": 366, "display_phone": "(415) 770-7000", "id": "bowld-acai-san-francisco-2", "rating": 4.5, "image_url": "https://s3-media3.fl.yelpcdn.com/bphoto/JmwJkRNGHfNnoszZZMw_MQ/o.jpg", "price": "$$", "categories": [{"alias": "foodtrucks", "title": "Food Trucks"}, {"alias": "juicebars", "title": "Juice Bars & Smoothies"}, {"alias": "hawaiian", "title": "Hawaiian"}], "coordinates": {"latitude": 37.782619, "longitude": -122.407949}, "url": "https://www.yelp.com/biz/bowld-acai-san-francisco-2?adjust_creative=Ac1Jga9ln_zF96nUd9t7WA&utm_campaign=yelp_api_v3&utm_medium=api_v3_business_search&utm_source=Ac1Jga9ln_zF96nUd9t7WA", "location": {"state": "CA", "address2": "", "city": "San Francisco", "address1": "14 Mint Plz", "display_address": ["14 Mint Plz", "San Francisco, CA 94103"], "zip_code": "94103", "country": "US", "address3": ""}, "phone": "+14157707000", "name": "Bowl'D Acai", "is_closed": false}
{"distance": 459.469386345, "transactions": ["delivery", "pickup"], "review_count": 175, "display_phone": "(628) 444-3666", "id": "frena-san-francisco-3", "rating": 4.5, "image_url": "https://s3-media3.fl.yelpcdn.com/bphoto/aVjHuyHA3kjg26msJHb_xA/o.jpg", "price": "$", "categories": [{"alias": "bakeries", "title": "Bakeries"}, {"alias": "kosher", "title": "Kosher"}, {"alias": "mediterranean", "title": "Mediterranean"}], "coordinates": {"latitude": 37.780321, "longitude": -122.408274}, "url": "https://www.yelp.com/biz/frena-san-francisco-3?adjust_creative=Ac1Jga9ln_zF96nUd9t7WA&utm_campaign=yelp_api_v3&utm_medium=api_v3_business_search&utm_source=Ac1Jga9ln_zF96nUd9t7WA", "location": {"state": "CA", "address2": null, "city": "San Francisco", "address1": "132 6th St", "display_address": ["132 6th St", "San Francisco, CA 94103"], "zip_code": "94103", "country": "US", "address3": ""}, "phone": "+16284443666", "name": "Frena", "is_closed": false}
{"distance": 582.7023115822, "transactions": ["pickup"], "review_count": 333, "display_phone": "(415) 699-6154", "id": "cafe-du-soleil-san-francisco-4", "rating": 4.5, "image_url": "https://s3-media1.fl.yelpcdn.com/bphoto/RnsumH60wQ7XdOlrNgdLAQ/o.jpg", "price": "$$", "categories": [{"alias": "french", "title": "French"}, {"alias": "sandwiches", "title": "Sandwiches"}, {"alias": "italian", "title": "Italian"}], "coordinates": {"latitude": 37.7832674501439, "longitude": -122.397890965607}, "url": "https://www.yelp.com/biz/cafe-du-soleil-san-francisco-4?adjust_creative=Ac1Jga9ln_zF96nUd9t7WA&utm_campaign=yelp_api_v3&utm_medium=api_v3_business_search&utm_source=Ac1Jga9ln_zF96nUd9t7WA", "location": {"state": "CA", "address2": "", "city": "San Francisco", "address1": "345 3rd St", "display_address": ["345 3rd St", "San Francisco, CA 94107"], "zip_code": "94107", "country": "US", "address3": ""}, "phone": "+14156996154", "name": "Cafe du Soleil", "is_closed": false}
{"distance": 208.31934258639998, "transactions": [], "review_count": 35, "display_phone": "(415) 321-6000", "id": "mariannes-san-francisco", "rating": 5.0, "image_url": "https://s3-media3.fl.yelpcdn.com/bphoto/sP0LySyYMD9PtTYtGUAOvA/o.jpg", "price": "$$$", "categories": [{"alias": "lounges", "title": "Lounges"}], "coordinates": {"latitude": 37.7833456546068, "longitude": -122.406836226583}, "url": "https://www.yelp.com/biz/mariannes-san-francisco?adjust_creative=Ac1Jga9ln_zF96nUd9t7WA&utm_campaign=yelp_api_v3&utm_medium=api_v3_business_search&utm_source=Ac1Jga9ln_zF96nUd9t7WA", "location": {"state": "CA", "address2": "", "city": "San Francisco", "address1": "360 Jessie St", "display_address": ["360 Jessie St", "San Francisco, CA 94103"], "zip_code": "94103", "country": "US", "address3": ""}, "phone": "+14153216000", "name": "Marianne's", "is_closed": false}
{"distance": 251.7180281248, "transactions": [], "location": {"state": "CA", "address2": "", "city": "San Francisco", "address1": "745 Mission St", "display_address": ["745 Mission St", "San Francisco, CA 94103"], "zip_code": "94103", "country": "US", "address3": ""}, "display_phone": "(415) 820-3550", "id": "yerba-buena-gardens-san-francisco", "rating": 4.5, "image_url": "https://s3-media1.fl.yelpcdn.com/bphoto/OxPlqMtfR71Z7r_xmBnWqg/o.jpg", "review_count": 357, "categories": [{"alias": "parks", "title": "Parks"}], "coordinates": {"latitude": 37.7848643788333, "longitude": -122.402581932663}, "url": "https://www.yelp.com/biz/yerba-buena-gardens-san-francisco?adjust_creative=Ac1Jga9ln_zF96nUd9t7WA&utm_campaign=yelp_api_v3&utm_medium=api_v3_business_search&utm_source=Ac1Jga9ln_zF96nUd9t7WA", "phone": "+14158203550", "name": "Yerba Buena Gardens", "is_closed": false}
{"distance": 951.890974794, "transactions": [], "review_count": 57, "display_phone": "", "id": "ichido-san-francisco-6", "rating": 5.0, "image_url": "https://s3-media3.fl.yelpcdn.com/bphoto/E0iRmQXbk2mNfuYlJe0m_w/o.jpg", "price": "$$$", "categories": [{"alias": "seafood", "title": "Seafood"}, {"alias": "japanese", "title": "Japanese"}, {"alias": "asianfusion", "title": "Asian Fusion"}], "coordinates": {"latitude": 37.7771497, "longitude": -122.4121886}, "url": "https://www.yelp.com/biz/ichido-san-francisco-6?adjust_creative=Ac1Jga9ln_zF96nUd9t7WA&utm_campaign=yelp_api_v3&utm_medium=api_v3_business_search&utm_source=Ac1Jga9ln_zF96nUd9t7WA", "location": {"state": "CA", "address2": "", "city": "San Francisco", "address1": "687 Minna St", "display_address": ["687 Minna St", "San Francisco, CA 94107"], "zip_code": "94107", "country": "US", "address3": ""}, "phone": "", "name": "Ichido", "is_closed": false}
{"distance": 524.5669479439999, "transactions": ["pickup"], "review_count": 367, "display_phone": "(415) 795-3040", "id": "montesacro-pinseria-enoteca-san-francisco-5", "rating": 4.5, "image_url": "https://s3-media2.fl.yelpcdn.com/bphoto/ZsgrHsx2UlV-QjuFrw2gqA/o.jpg", "price": "$$", "categories": [{"alias": "pizza", "title": "Pizza"}], "coordinates": {"latitude": 37.7815976, "longitude": -122.410121}, "url": "https://www.yelp.com/biz/montesacro-pinseria-enoteca-san-francisco-5?adjust_creative=Ac1Jga9ln_zF96nUd9t7WA&utm_campaign=yelp_api_v3&utm_medium=api_v3_business_search&utm_source=Ac1Jga9ln_zF96nUd9t7WA", "location": {"state": "CA", "address2": "", "city": "San Francisco", "address1": "510 Stevenson St", "display_address": ["510 Stevenson St", "San Francisco, CA 94103"], "zip_code": "94103", "country": "US", "address3": ""}, "phone": "+14157953040", "name": "Montesacro Pinseria-Enoteca", "is_closed": false}
{"distance": 627.7752418028, "transactions": ["pickup"], "review_count": 637, "display_phone": "(415) 964-1003", "id": "the-flying-falafel-san-francisco-3", "rating": 4.5, "image_url": "https://s3-media3.fl.yelpcdn.com/bphoto/O4zKAcpg4qFUQj5Kd5fjpQ/o.jpg", "price": "$", "categories": [{"alias": "falafel", "title": "Falafel"}, {"alias": "vegan", "title": "Vegan"}], "coordinates": {"latitude": 37.7812488, "longitude": -122.411304}, "url": "https://www.yelp.com/biz/the-flying-falafel-san-francisco-3?adjust_creative=Ac1Jga9ln_zF96nUd9t7WA&utm_campaign=yelp_api_v3&utm_medium=api_v3_business_search&utm_source=Ac1Jga9ln_zF96nUd9t7WA", "location": {"state": "CA", "address2": null, "city": "San Francisco", "address1": "1051 Market St", "display_address": ["1051 Market St", "San Francisco, CA 94103"], "zip_code": "94103", "country": "US", "address3": ""}, "phone": "+14159641003", "name": "The Flying Falafel", "is_closed": false}
{"distance": 537.8458375916, "transactions": ["restaurant_reservation"], "review_count": 882, "display_phone": "(415) 685-4860", "id": "benu-san-francisco-4", "rating": 4.5, "image_url": "https://s3-media2.fl.yelpcdn.com/bphoto/UAN9WLyuD8E37pKDhlpe1g/o.jpg", "price": "$$$$", "categories": [{"alias": "newamerican", "title": "American (New)"}, {"alias": "asianfusion", "title": "Asian Fusion"}, {"alias": "wine_bars", "title": "Wine Bars"}], "coordinates": {"latitude": 37.785402, "longitude": -122.399068}, "url": "https://www.yelp.com/biz/benu-san-francisco-4?adjust_creative=Ac1Jga9ln_zF96nUd9t7WA&utm_campaign=yelp_api_v3&utm_medium=api_v3_business_search&utm_source=Ac1Jga9ln_zF96nUd9t7WA", "location": {"state": "CA", "address2": "", "city": "San Francisco", "address1": "22 Hawthorne St", "display_address": ["22 Hawthorne St", "San Francisco, CA 94105"], "zip_code": "94105", "country": "US", "address3": ""}, "phone": "+14156854860", "name": "Benu", "is_closed": false}
{"distance": 656.9618458012, "transactions": [], "review_count": 1069, "display_phone": "(415) 552-7687", "id": "deli-board-san-francisco", "rating": 4.5, "image_url": "https://s3-media4.fl.yelpcdn.com/bphoto/wA6jJVj5-by8NzVCCuBlmQ/o.jpg", "price": "$$", "categories": [{"alias": "delis", "title": "Delis"}, {"alias": "sandwiches", "title": "Sandwiches"}], "coordinates": {"latitude": 37.7776247966103, "longitude": -122.407012712007}, "url": "https://www.yelp.com/biz/deli-board-san-francisco?adjust_creative=Ac1Jga9ln_zF96nUd9t7WA&utm_campaign=yelp_api_v3&utm_medium=api_v3_business_search&utm_source=Ac1Jga9ln_zF96nUd9t7WA", "location": {"state": "CA", "address2": "", "city": "San Francisco", "address1": "1058 Folsom St", "display_address": ["1058 Folsom St", "San Francisco, CA 94103"], "zip_code": "94103", "country": "US", "address3": ""}, "phone": "+14155527687", "name": "Deli Board", "is_closed": false}
{"distance": 279.3191908222, "transactions": [], "review_count": 537, "display_phone": "(415) 580-7170", "id": "box-kitchen-san-francisco", "rating": 4.5, "image_url": "https://s3-media1.fl.yelpcdn.com/bphoto/6lYNesrYPiU2Y4_HuFpysA/o.jpg", "price": "$", "categories": [{"alias": "burgers", "title": "Burgers"}, {"alias": "waffles", "title": "Waffles"}], "coordinates": {"latitude": 37.7811510761365, "longitude": -122.40636505138}, "url": "https://www.yelp.com/biz/box-kitchen-san-francisco?adjust_creative=Ac1Jga9ln_zF96nUd9t7WA&utm_campaign=yelp_api_v3&utm_medium=api_v3_business_search&utm_source=Ac1Jga9ln_zF96nUd9t7WA", "location": {"state": "CA", "address2": null, "city": "San Francisco", "address1": "431 Natoma St", "display_address": ["431 Natoma St", "San Francisco, CA 94103"], "zip_code": "94103", "country": "US", "address3": ""}, "phone": "+14155807170", "name": "Box Kitchen", "is_closed": false}
{"distance": 295.6038769746, "transactions": [], "review_count": 2028, "display_phone": "(510) 653-3394", "id": "blue-bottle-coffee-san-francisco-21", "rating": 4.0, "image_url": "https://s3-media1.fl.yelpcdn.com/bphoto/YKoMObZPbtVi1l7f3g4xwg/o.jpg", "price": "$$", "categories": [{"alias": "coffee", "title": "Coffee & Tea"}], "coordinates": {"latitude": 37.7824664727379, "longitude": -122.407753326389}, "url": "https://www.yelp.com/biz/blue-bottle-coffee-san-francisco-21?adjust_creative=Ac1Jga9ln_zF96nUd9t7WA&utm_campaign=yelp_api_v3&utm_medium=api_v3_business_search&utm_source=Ac1Jga9ln_zF96nUd9t7WA", "location": {"state": "CA", "address2": "", "city": "San Francisco", "address1": "66 Mint St", "display_address": ["66 Mint St", "San Francisco, CA 94103"], "zip_code": "94103", "country": "US", "address3": ""}, "phone": "+15106533394", "name": "Blue Bottle Coffee", "is_closed": false}
{"distance": 610.933546983, "transactions": [], "review_count": 123, "display_phone": "(415) 512-9086", "id": "the-wine-club-san-francisco", "rating": 4.5, "image_url": "https://s3-media2.fl.yelpcdn.com/bphoto/yYZ7Vd5YMJD5XrRm3zmTIQ/o.jpg", "price": "$$", "categories": [{"alias": "beer_and_wine", "title": "Beer, Wine & Spirits"}, {"alias": "wine_bars", "title": "Wine Bars"}], "coordinates": {"latitude": 37.7778625488281, "longitude": -122.402854919434}, "url": "https://www.yelp.com/biz/the-wine-club-san-francisco?adjust_creative=Ac1Jga9ln_zF96nUd9t7WA&utm_campaign=yelp_api_v3&utm_medium=api_v3_business_search&utm_source=Ac1Jga9ln_zF96nUd9t7WA", "location": {"state": "CA", "address2": "", "city": "San Francisco", "address1": "953 Harrison St", "display_address": ["953 Harrison St", "San Francisco, CA 94107"], "zip_code": "94107", "country": "US", "address3": ""}, "phone": "+14155129086", "name": "The Wine Club", "is_closed": false}
{"distance": 554.4106776512, "transactions": ["pickup", "restaurant_reservation"], "review_count": 276, "display_phone": "(415) 361-0448", "id": "takoba-sf-san-francisco", "rating": 4.5, "image_url": "https://s3-media4.fl.yelpcdn.com/bphoto/gkc6NtHrWdiyvVoijJUFWA/o.jpg", "price": "$$", "categories": [{"alias": "japanese", "title": "Japanese"}, {"alias": "sushi", "title": "Sushi Bars"}], "coordinates": {"latitude": 37.78704, "longitude": -122.40044}, "url": "https://www.yelp.com/biz/takoba-sf-san-francisco?adjust_creative=Ac1Jga9ln_zF96nUd9t7WA&utm_campaign=yelp_api_v3&utm_medium=api_v3_business_search&utm_source=Ac1Jga9ln_zF96nUd9t7WA", "location": {"state": "CA", "address2": "", "city": "San Francisco", "address1": "138 Minna St", "display_address": ["138 Minna St", "San Francisco, CA 94105"], "zip_code": "94105", "country": "US", "address3": ""}, "phone": "+14153610448", "name": "Takoba SF", "is_closed": false}
{"distance": 379.28382772419997, "transactions": ["pickup", "restaurant_reservation"], "review_count": 143, "display_phone": "(415) 546-6128", "id": "mathilde-french-bistro-san-francisco", "rating": 4.5, "image_url": "https://s3-media4.fl.yelpcdn.com/bphoto/TPL8VVAW8Pgt1ZXyBIsZ_w/o.jpg", "price": "$$$", "categories": [{"alias": "french", "title": "French"}, {"alias": "desserts", "title": "Desserts"}, {"alias": "salad", "title": "Salad"}], "coordinates": {"latitude": 37.7800134026795, "longitude": -122.402965373019}, "url": "https://www.yelp.com/biz/mathilde-french-bistro-san-francisco?adjust_creative=Ac1Jga9ln_zF96nUd9t7WA&utm_campaign=yelp_api_v3&utm_medium=api_v3_business_search&utm_source=Ac1Jga9ln_zF96nUd9t7WA", "location": {"state": "CA", "address2": "", "city": "San Francisco", "address1": "315 5th St", "display_address": ["315 5th St", "San Francisco, CA 94107"], "zip_code": "94107", "country": "US", "address3": ""}, "phone": "+14155466128", "name": "Mathilde French Bistro", "is_closed": false}
{"distance": 567.726228064, "transactions": [], "review_count": 652, "display_phone": "(415) 660-2500", "id": "mourad-restaurant-san-francisco", "rating": 4.0, "image_url": "https://s3-media2.fl.yelpcdn.com/bphoto/wlbRTdS4LXvR1vR4sVwirA/o.jpg", "price": "$$$", "categories": [{"alias": "moroccan", "title": "Moroccan"}, {"alias": "venues", "title": "Venues & Event Spaces"}, {"alias": "cocktailbars", "title": "Cocktail Bars"}], "coordinates": {"latitude": 37.7867223261028, "longitude": -122.39984530222}, "url": "https://www.yelp.com/biz/mourad-restaurant-san-francisco?adjust_creative=Ac1Jga9ln_zF96nUd9t7WA&utm_campaign=yelp_api_v3&utm_medium=api_v3_business_search&utm_source=Ac1Jga9ln_zF96nUd9t7WA", "location": {"state": "CA", "address2": "Ste 1", "city": "San Francisco", "address1": "140 New Montgomery St", "display_address": ["140 New Montgomery St", "Ste 1", "San Francisco, CA 94105"], "zip_code": "94105", "country": "US", "address3": ""}, "phone": "+14156602500", "name": "Mourad Restaurant", "is_closed": false}
{"distance": 250.4714494542, "transactions": [], "location": {"state": "CA", "address2": "", "city": "San Francisco", "address1": "745 Mission St", "display_address": ["745 Mission St", "San Francisco, CA 94103"], "zip_code": "94103", "country": "US", "address3": ""}, "display_phone": "", "id": "martin-luther-king-jr-memorial-san-francisco", "rating": 4.5, "image_url": "https://s3-media3.fl.yelpcdn.com/bphoto/vVGq4gEEM2-SdkG-2iwZkg/o.jpg", "review_count": 28, "categories": [{"alias": "landmarks", "title": "Landmarks & Historical Buildings"}], "coordinates": {"latitude": 37.7846389065563, "longitude": -122.402329444885}, "url": "https://www.yelp.com/biz/martin-luther-king-jr-memorial-san-francisco?adjust_creative=Ac1Jga9ln_zF96nUd9t7WA&utm_campaign=yelp_api_v3&utm_medium=api_v3_business_search&utm_source=Ac1Jga9ln_zF96nUd9t7WA", "phone": "", "name": "Martin Luther King Jr Memorial", "is_closed": false}
{"distance": 306.88990480679996, "transactions": ["restaurant_reservation"], "review_count": 1064, "display_phone": "(415) 744-5000", "id": "press-club-san-francisco", "rating": 4.0, "image_url": "https://s3-media2.fl.yelpcdn.com/bphoto/swIEgvIs8bHhyULpVYgTWw/o.jpg", "price": "$$$", "categories": [{"alias": "wine_bars", "title": "Wine Bars"}, {"alias": "venues", "title": "Venues & Event Spaces"}, {"alias": "lounges", "title": "Lounges"}], "coordinates": {"latitude": 37.7859531718409, "longitude": -122.404646873474}, "url": "https://www.yelp.com/biz/press-club-san-francisco?adjust_creative=Ac1Jga9ln_zF96nUd9t7WA&utm_campaign=yelp_api_v3&utm_medium=api_v3_business_search&utm_source=Ac1Jga9ln_zF96nUd9t7WA", "location": {"state": "CA", "address2": "", "city": "San Francisco", "address1": "20 Yerba Buena Ln", "display_address": ["20 Yerba Buena Ln", "San Francisco, CA 94103"], "zip_code": "94103", "country": "US", "address3": ""}, "phone": "+14157445000", "name": "Press Club", "is_closed": false}
{"distance": 268.47796847259997, "transactions": ["pickup"], "review_count": 595, "display_phone": "(415) 495-1863", "id": "tempest-san-francisco", "rating": 4.0, "image_url": "https://s3-media3.fl.yelpcdn.com/bphoto/UZ78n5t-RGNGrSvgF6Zc2Q/o.jpg", "price": "$", "categories": [{"alias": "tradamerican", "title": "American (Traditional)"}, {"alias": "divebars", "title": "Dive Bars"}, {"alias": "sportsbars", "title": "Sports Bars"}], "coordinates": {"latitude": 37.7812215727578, "longitude": -122.40627989109}, "url": "https://www.yelp.com/biz/tempest-san-francisco?adjust_creative=Ac1Jga9ln_zF96nUd9t7WA&utm_campaign=yelp_api_v3&utm_medium=api_v3_business_search&utm_source=Ac1Jga9ln_zF96nUd9t7WA", "location": {"state": "CA", "address2": "", "city": "San Francisco", "address1": "431 Natoma St", "display_address": ["431 Natoma St", "San Francisco, CA 94103"], "zip_code": "94103", "country": "US", "address3": ""}, "phone": "+14154951863", "name": "Tempest", "is_closed": false}
{"distance": 248.23723491899997, "transactions": [], "review_count": 48, "display_phone": "(415) 908-1919", "id": "hashiri-san-francisco", "rating": 4.5, "image_url": "https://s3-media2.fl.yelpcdn.com/bphoto/lJfejAMykIku5rH21c5bnw/o.jpg", "price": "$$$$", "categories": [{"alias": "japanese", "title": "Japanese"}, {"alias": "sushi", "title": "Sushi Bars"}], "coordinates": {"latitude": 37.7831021, "longitude": -122.4076549}, "url": "https://www.yelp.com/biz/hashiri-san-francisco?adjust_creative=Ac1Jga9ln_zF96nUd9t7WA&utm_campaign=yelp_api_v3&utm_medium=api_v3_business_search&utm_source=Ac1Jga9ln_zF96nUd9t7WA", "location": {"state": "CA", "address2": "", "city": "San Francisco", "address1": "4 Mint Plz", "display_address": ["4 Mint Plz", "San Francisco, CA 94103"], "zip_code": "94103", "country": "US", "address3": ""}, "phone": "+14159081919", "name": "Hashiri", "is_closed": false}
{"distance": 180.45127085, "transactions": [], "review_count": 1090, "display_phone": "(415) 882-1750", "id": "super-duper-burgers-san-francisco-6", "rating": 4.0, "image_url": "https://s3-media2.fl.yelpcdn.com/bphoto/IxN1BPB_Q8HRkoL_yXLwcQ/o.jpg", "price": "$$", "categories": [{"alias": "burgers", "title": "Burgers"}], "coordinates": {"latitude": 37.784646, "longitude": -122.403592}, "url": "https://www.yelp.com/biz/super-duper-burgers-san-francisco-6?adjust_creative=Ac1Jga9ln_zF96nUd9t7WA&utm_campaign=yelp_api_v3&utm_medium=api_v3_business_search&utm_source=Ac1Jga9ln_zF96nUd9t7WA", "location": {"state": "CA", "address2": "", "city": "San Francisco", "address1": "783 Mission St", "display_address": ["783 Mission St", "San Francisco, CA 94103"], "zip_code": "94103", "country": "US", "address3": ""}, "phone": "+14158821750", "name": "Super Duper Burgers", "is_closed": false}
{"distance": 938.9786606115999, "transactions": [], "review_count": 679, "display_phone": "(415) 503-1033", "id": "city-beer-store-san-francisco", "rating": 4.5, "image_url": "https://s3-media4.fl.yelpcdn.com/bphoto/-EZww5mXd1EVOKPqEGEkoA/o.jpg", "price": "$$", "categories": [{"alias": "beer_and_wine", "title": "Beer, Wine & Spirits"}, {"alias": "beerbar", "title": "Beer Bar"}], "coordinates": {"latitude": 37.77578, "longitude": -122.40965}, "url": "https://www.yelp.com/biz/city-beer-store-san-francisco?adjust_creative=Ac1Jga9ln_zF96nUd9t7WA&utm_campaign=yelp_api_v3&utm_medium=api_v3_business_search&utm_source=Ac1Jga9ln_zF96nUd9t7WA", "location": {"state": "CA", "address2": null, "city": "San Francisco", "address1": "1168 Folsom St", "display_address": ["1168 Folsom St", "San Francisco, CA 94103"], "zip_code": "94103", "country": "US", "address3": ""}, "phone": "+14155031033", "name": "City Beer Store", "is_closed": false}
{"distance": 704.5366077056, "transactions": ["restaurant_reservation"], "review_count": 19, "display_phone": "", "id": "san-francisco-champagne-society-san-francisco", "rating": 5.0, "image_url": "https://s3-media1.fl.yelpcdn.com/bphoto/cpPKRq9lur49QgifRhdXtg/o.jpg", "price": "$$$", "categories": [{"alias": "champagne_bars", "title": "Champagne Bars"}], "coordinates": {"latitude": 37.7779104, "longitude": -122.408943}, "url": "https://www.yelp.com/biz/san-francisco-champagne-society-san-francisco?adjust_creative=Ac1Jga9ln_zF96nUd9t7WA&utm_campaign=yelp_api_v3&utm_medium=api_v3_business_search&utm_source=Ac1Jga9ln_zF96nUd9t7WA", "location": {"state": "CA", "address2": "", "city": "San Francisco", "address1": "1097 Howard St", "display_address": ["1097 Howard St", "San Francisco, CA 94103"], "zip_code": "94103", "country": "US", "address3": ""}, "phone": "", "name": "San Francisco Champagne Society", "is_closed": false}
{"distance": 446.8101730644, "transactions": ["delivery", "pickup"], "review_count": 270, "display_phone": "(415) 551-2223", "id": "split-pea-seduction-san-francisco", "rating": 4.0, "image_url": "https://s3-media4.fl.yelpcdn.com/bphoto/4PYF9J8ZU3KhcAND19NV6w/o.jpg", "price": "$$", "categories": [{"alias": "sandwiches", "title": "Sandwiches"}, {"alias": "soup", "title": "Soup"}, {"alias": "salad", "title": "Salad"}], "coordinates": {"latitude": 37.7803635, "longitude": -122.4081286}, "url": "https://www.yelp.com/biz/split-pea-seduction-san-francisco?adjust_creative=Ac1Jga9ln_zF96nUd9t7WA&utm_campaign=yelp_api_v3&utm_medium=api_v3_business_search&utm_source=Ac1Jga9ln_zF96nUd9t7WA", "location": {"state": "CA", "address2": "", "city": "San Francisco", "address1": "138 6th St", "display_address": ["138 6th St", "San Francisco, CA 94103"], "zip_code": "94103", "country": "US", "address3": ""}, "phone": "+14155512223", "name": "Split Pea Seduction", "is_closed": false}
{"distance": 604.618899158, "transactions": [], "review_count": 574, "display_phone": "(415) 872-9825", "id": "the-bird-san-francisco-2", "rating": 4.0, "image_url": "https://s3-media2.fl.yelpcdn.com/bphoto/RgkrlRXCZuE0ApNLK9cW9g/o.jpg", "price": "$", "categories": [{"alias": "chickenshop", "title": "Chicken Shop"}, {"alias": "sandwiches", "title": "Sandwiches"}], "coordinates": {"latitude": 37.78724, "longitude": -122.39995}, "url": "https://www.yelp.com/biz/the-bird-san-francisco-2?adjust_creative=Ac1Jga9ln_zF96nUd9t7WA&utm_campaign=yelp_api_v3&utm_medium=api_v3_business_search&utm_source=Ac1Jga9ln_zF96nUd9t7WA", "location": {"state": "CA", "address2": null, "city": "San Francisco", "address1": "115 New Montgomery St", "display_address": ["115 New Montgomery St", "San Francisco, CA 94105"], "zip_code": "94105", "country": "US", "address3": ""}, "phone": "+14158729825", "name": "The Bird", "is_closed": false}
{"distance": 909.0565721397999, "transactions": [], "review_count": 119, "display_phone": "(415) 400-4071", "id": "socola-chocolatier-and-barista-san-francisco", "rating": 4.5, "image_url": "https://s3-media1.fl.yelpcdn.com/bphoto/cJYv16Rsd52WbwutKUU62A/o.jpg", "price": "$$", "categories": [{"alias": "chocolate", "title": "Chocolatiers & Shops"}, {"alias": "coffee", "title": "Coffee & Tea"}], "coordinates": {"latitude": 37.7865549, "longitude": -122.395089}, "url": "https://www.yelp.com/biz/socola-chocolatier-and-barista-san-francisco?adjust_creative=Ac1Jga9ln_zF96nUd9t7WA&utm_campaign=yelp_api_v3&utm_medium=api_v3_business_search&utm_source=Ac1Jga9ln_zF96nUd9t7WA", "location": {"state": "CA", "address2": "", "city": "San Francisco", "address1": "535 Folsom St", "display_address": ["535 Folsom St", "San Francisco, CA 94105"], "zip_code": "94105", "country": "US", "address3": ""}, "phone": "+14154004071", "name": "Socola Chocolatier and Barista", "is_closed": false}
{"distance": 496.51840481999994, "transactions": [], "review_count": 3677, "display_phone": "(415) 885-2767", "id": "dotties-true-blue-cafe-san-francisco", "rating": 4.0, "image_url": "https://s3-media3.fl.yelpcdn.com/bphoto/TNPVifX6XGdEVpv_O9_1cA/o.jpg", "price": "$$", "categories": [{"alias": "tradamerican", "title": "American (Traditional)"}, {"alias": "breakfast_brunch", "title": "Breakfast & Brunch"}, {"alias": "cafes", "title": "Cafes"}], "coordinates": {"latitude": 37.7817050429594, "longitude": -122.409839630127}, "url": "https://www.yelp.com/biz/dotties-true-blue-cafe-san-francisco?adjust_creative=Ac1Jga9ln_zF96nUd9t7WA&utm_campaign=yelp_api_v3&utm_medium=api_v3_business_search&utm_source=Ac1Jga9ln_zF96nUd9t7WA", "location": {"state": "CA", "address2": "", "city": "San Francisco", "address1": "28 6th St", "display_address": ["28 6th St", "San Francisco, CA 94103"], "zip_code": "94103", "country": "US", "address3": ""}, "phone": "+14158852767", "name": "Dottie's True Blue Cafe", "is_closed": false}
{"distance": 240.88047507039997, "transactions": [], "review_count": 1254, "display_phone": "(415) 442-6003", "id": "the-view-san-francisco-2", "rating": 4.0, "image_url": "https://s3-media3.fl.yelpcdn.com/bphoto/jJrluAtthrhEvJjpnJQ_Cg/o.jpg", "price": "$$", "categories": [{"alias": "lounges", "title": "Lounges"}], "coordinates": {"latitude": 37.7848679, "longitude": -122.4040062}, "url": "https://www.yelp.com/biz/the-view-san-francisco-2?adjust_creative=Ac1Jga9ln_zF96nUd9t7WA&utm_campaign=yelp_api_v3&utm_medium=api_v3_business_search&utm_source=Ac1Jga9ln_zF96nUd9t7WA", "location": {"state": "CA", "address2": "", "city": "San Francisco", "address1": "780 Mission St", "display_address": ["780 Mission St", "Marriott", "San Francisco, CA 94103"], "zip_code": "94103", "country": "US", "address3": "Marriott"}, "phone": "+14154426003", "name": "The View", "is_closed": false}
{"distance": 538.215921418, "transactions": [], "review_count": 37, "display_phone": "(626) 862-4582", "id": "st-clare-coffee-san-francisco-2", "rating": 4.5, "image_url": "https://s3-media1.fl.yelpcdn.com/bphoto/bWOXbSBoqLGk4kqa-40ojw/o.jpg", "price": "$", "categories": [{"alias": "coffee", "title": "Coffee & Tea"}], "coordinates": {"latitude": 37.7872190775148, "longitude": -122.401114503939}, "url": "https://www.yelp.com/biz/st-clare-coffee-san-francisco-2?adjust_creative=Ac1Jga9ln_zF96nUd9t7WA&utm_campaign=yelp_api_v3&utm_medium=api_v3_business_search&utm_source=Ac1Jga9ln_zF96nUd9t7WA", "location": {"state": "CA", "address2": "", "city": "San Francisco", "address1": "654 Mission St", "display_address": ["654 Mission St", "San Francisco, CA 94105"], "zip_code": "94105", "country": "US", "address3": ""}, "phone": "+16268624582", "name": "St. Clare Coffee", "is_closed": false}
{"distance": 631.197149258, "transactions": ["pickup"], "review_count": 1262, "display_phone": "(415) 284-9960", "id": "the-sentinel-san-francisco", "rating": 4.0, "image_url": "https://s3-media3.fl.yelpcdn.com/bphoto/DZ5IEEYsi47slj-e51ejJA/o.jpg", "price": "$", "categories": [{"alias": "sandwiches", "title": "Sandwiches"}], "coordinates": {"latitude": 37.7882977785009, "longitude": -122.401372356986}, "url": "https://www.yelp.com/biz/the-sentinel-san-francisco?adjust_creative=Ac1Jga9ln_zF96nUd9t7WA&utm_campaign=yelp_api_v3&utm_medium=api_v3_business_search&utm_source=Ac1Jga9ln_zF96nUd9t7WA", "location": {"state": "CA", "address2": "", "city": "San Francisco", "address1": "37 New Montgomery St", "display_address": ["37 New Montgomery St", "San Francisco, CA 94105"], "zip_code": "94105", "country": "US", "address3": ""}, "phone": "+14152849960", "name": "The Sentinel", "is_closed": false}
{"distance": 404.14426830819997, "transactions": [], "review_count": 2293, "display_phone": "(415) 538-3437", "id": "super-duper-burgers-san-francisco-3", "rating": 4.0, "image_url": "https://s3-media2.fl.yelpcdn.com/bphoto/R_jqJrfJl0K8p-UxlalZ2w/o.jpg", "price": "$$", "categories": [{"alias": "burgers", "title": "Burgers"}, {"alias": "salad", "title": "Salad"}], "coordinates": {"latitude": 37.7868189045762, "longitude": -122.40416383317}, "url": "https://www.yelp.com/biz/super-duper-burgers-san-francisco-3?adjust_creative=Ac1Jga9ln_zF96nUd9t7WA&utm_campaign=yelp_api_v3&utm_medium=api_v3_business_search&utm_source=Ac1Jga9ln_zF96nUd9t7WA", "location": {"state": "CA", "address2": "", "city": "San Francisco", "address1": "721 Market St", "display_address": ["721 Market St", "San Francisco, CA 94103"], "zip_code": "94103", "country": "US", "address3": ""}, "phone": "+14155383437", "name": "Super Duper Burgers", "is_closed": false}
{"distance": 439.16860831599996, "transactions": [], "review_count": 76, "display_phone": "(415) 716-1048", "id": "garajito-san-francisco", "rating": 4.5, "image_url": "https://s3-media2.fl.yelpcdn.com/bphoto/bwn5o0bq_X-VLym-bBr_6A/o.jpg", "price": "$$", "categories": [{"alias": "sandwiches", "title": "Sandwiches"}, {"alias": "tacos", "title": "Tacos"}, {"alias": "coffee", "title": "Coffee & Tea"}], "coordinates": {"latitude": 37.7846021851334, "longitude": -122.3998460452}, "url": "https://www.yelp.com/biz/garajito-san-francisco?adjust_creative=Ac1Jga9ln_zF96nUd9t7WA&utm_campaign=yelp_api_v3&utm_medium=api_v3_business_search&utm_source=Ac1Jga9ln_zF96nUd9t7WA", "location": {"state": "CA", "address2": null, "city": "San Francisco", "address1": "257 3rd St", "display_address": ["257 3rd St", "San Francisco, CA 94103"], "zip_code": "94103", "country": "US", "address3": ""}, "phone": "+14157161048", "name": "Garajito", "is_closed": false}
{"distance": 1177.1292122399998, "transactions": [], "review_count": 117, "display_phone": "(415) 230-6359", "id": "philz-coffee-san-francisco-25", "rating": 4.5, "image_url": "https://s3-media2.fl.yelpcdn.com/bphoto/TDG3oqCHz9VreK9_uTtjog/o.jpg", "price": "$", "categories": [{"alias": "coffee", "title": "Coffee & Tea"}], "coordinates": {"latitude": 37.7886764013327, "longitude": -122.393061536082}, "url": "https://www.yelp.com/biz/philz-coffee-san-francisco-25?adjust_creative=Ac1Jga9ln_zF96nUd9t7WA&utm_campaign=yelp_api_v3&utm_medium=api_v3_business_search&utm_source=Ac1Jga9ln_zF96nUd9t7WA", "location": {"state": "CA", "address2": "", "city": "San Francisco", "address1": "300 Folsom St", "display_address": ["300 Folsom St", "San Francisco, CA 94105"], "zip_code": "94105", "country": "US", "address3": ""}, "phone": "+14152306359", "name": "Philz Coffee", "is_closed": false}
{"distance": 1200.13794622, "transactions": ["delivery", "pickup"], "review_count": 188, "display_phone": "(628) 444-3149", "id": "elixiria-san-francisco", "rating": 4.5, "image_url": "https://s3-media2.fl.yelpcdn.com/bphoto/YycEtxLR5vSlRlO5vdwCfw/o.jpg", "price": "$$", "categories": [{"alias": "juicebars", "title": "Juice Bars & Smoothies"}, {"alias": "healthmarkets", "title": "Health Markets"}, {"alias": "breakfast_brunch", "title": "Breakfast & Brunch"}], "coordinates": {"latitude": 37.7920625403238, "longitude": -122.396727216602}, "url": "https://www.yelp.com/biz/elixiria-san-francisco?adjust_creative=Ac1Jga9ln_zF96nUd9t7WA&utm_campaign=yelp_api_v3&utm_medium=api_v3_business_search&utm_source=Ac1Jga9ln_zF96nUd9t7WA", "location": {"state": "CA", "address2": "", "city": "San Francisco", "address1": "25 Beale St", "display_address": ["25 Beale St", "San Francisco, CA 94105"], "zip_code": "94105", "country": "US", "address3": ""}, "phone": "+16284443149", "name": "Elixiria", "is_closed": false}
{"distance": 168.9715750422, "transactions": [], "review_count": 87, "display_phone": "(415) 369-6000", "id": "cafe-x-san-francisco", "rating": 4.5, "image_url": "https://s3-media4.fl.yelpcdn.com/bphoto/2XT60KvQd15X7Wx7V6xnrg/o.jpg", "price": "$", "categories": [{"alias": "coffee", "title": "Coffee & Tea"}], "coordinates": {"latitude": 37.7840749, "longitude": -122.4034978}, "url": "https://www.yelp.com/biz/cafe-x-san-francisco?adjust_creative=Ac1Jga9ln_zF96nUd9t7WA&utm_campaign=yelp_api_v3&utm_medium=api_v3_business_search&utm_source=Ac1Jga9ln_zF96nUd9t7WA", "location": {"state": "CA", "address2": null, "city": "San Francisco", "address1": "135 4th St", "display_address": ["135 4th St", "San Francisco, CA 94103"], "zip_code": "94103", "country": "US", "address3": ""}, "phone": "+14153696000", "name": "Cafe X", "is_closed": false}
{"distance": 888.1047838939999, "transactions": [], "review_count": 91, "display_phone": "(415) 735-4519", "id": "the-chai-cart-san-francisco-5", "rating": 4.5, "image_url": "https://s3-media3.fl.yelpcdn.com/bphoto/78u3ywPJ5dMAsW47JhXIrA/o.jpg", "price": "$", "categories": [{"alias": "coffee", "title": "Coffee & Tea"}, {"alias": "streetvendors", "title": "Street Vendors"}, {"alias": "catering", "title": "Caterers"}], "coordinates": {"latitude": 37.7903421968222, "longitude": -122.40000128746}, "url": "https://www.yelp.com/biz/the-chai-cart-san-francisco-5?adjust_creative=Ac1Jga9ln_zF96nUd9t7WA&utm_campaign=yelp_api_v3&utm_medium=api_v3_business_search&utm_source=Ac1Jga9ln_zF96nUd9t7WA", "location": {"state": "CA", "address2": "", "city": "San Francisco", "address1": "545 Market St", "display_address": ["545 Market St", "San Francisco, CA 94105"], "zip_code": "94105", "country": "US", "address3": ""}, "phone": "+14157354519", "name": "The Chai Cart", "is_closed": false}
{"distance": 652.406641118, "transactions": [], "review_count": 44, "display_phone": "(415) 872-9482", "id": "equator-coffees-and-teas-san-francisco-3", "rating": 4.5, "image_url": "https://s3-media2.fl.yelpcdn.com/bphoto/2LRPD9gWveeXdcm5g3ugXA/o.jpg", "price": "$$", "categories": [{"alias": "coffee", "title": "Coffee & Tea"}], "coordinates": {"latitude": 37.7863718240192, "longitude": -122.398275956512}, "url": "https://www.yelp.com/biz/equator-coffees-and-teas-san-francisco-3?adjust_creative=Ac1Jga9ln_zF96nUd9t7WA&utm_campaign=yelp_api_v3&utm_medium=api_v3_business_search&utm_source=Ac1Jga9ln_zF96nUd9t7WA", "location": {"state": "CA", "address2": "", "city": "San Francisco", "address1": "222 2nd St", "display_address": ["222 2nd St", "San Francisco, CA 94105"], "zip_code": "94105", "country": "US", "address3": null}, "phone": "+14158729482", "name": "Equator Coffees & Teas", "is_closed": false}
{"distance": 1004.3701037879999, "transactions": [], "review_count": 243, "display_phone": "(415) 503-0405", "id": "wicked-grounds-san-francisco", "rating": 4.5, "image_url": "https://s3-media4.fl.yelpcdn.com/bphoto/1-QPin3Z7Whs0aoFjoJ-HA/o.jpg", "price": "$", "categories": [{"alias": "coffee", "title": "Coffee & Tea"}, {"alias": "adultentertainment", "title": "Adult Entertainment"}], "coordinates": {"latitude": 37.7752828, "longitude": -122.410181}, "url": "https://www.yelp.com/biz/wicked-grounds-san-francisco?adjust_creative=Ac1Jga9ln_zF96nUd9t7WA&utm_campaign=yelp_api_v3&utm_medium=api_v3_business_search&utm_source=Ac1Jga9ln_zF96nUd9t7WA", "location": {"state": "CA", "address2": "", "city": "San Francisco", "address1": "289 8th St", "display_address": ["289 8th St", "San Francisco, CA 94103"], "zip_code": "94103", "country": "US", "address3": ""}, "phone": "+14155030405", "name": "Wicked Grounds", "is_closed": false}
{"distance": 131.2945277256, "transactions": [], "review_count": 54, "display_phone": "(800) 562-1465", "id": "nespresso-boutique-at-bloomingdales-san-fransisco", "rating": 4.5, "image_url": "https://s3-media1.fl.yelpcdn.com/bphoto/R9N59P93rqLyWORbuZlCBA/o.jpg", "price": "$$", "categories": [{"alias": "coffee", "title": "Coffee & Tea"}, {"alias": "cafes", "title": "Cafes"}], "coordinates": {"latitude": 37.7837371826172, "longitude": -122.40584564209}, "url": "https://www.yelp.com/biz/nespresso-boutique-at-bloomingdales-san-fransisco?adjust_creative=Ac1Jga9ln_zF96nUd9t7WA&utm_campaign=yelp_api_v3&utm_medium=api_v3_business_search&utm_source=Ac1Jga9ln_zF96nUd9t7WA", "location": {"state": "CA", "address2": "", "city": "San Fransisco", "address1": "845 Market St Concourse Level", "display_address": ["845 Market St Concourse Level", "San Fransisco, CA 94103"], "zip_code": "94103", "country": "US", "address3": ""}, "phone": "+18005621465", "name": "Nespresso Boutique at Bloomingdale's", "is_closed": false}
{"distance": 241.25619158679999, "transactions": ["pickup", "restaurant_reservation"], "review_count": 2091, "display_phone": "(415) 227-9400", "id": "samovar-tea-lounge-san-francisco-2", "rating": 4.0, "image_url": "https://s3-media2.fl.yelpcdn.com/bphoto/Lih-sSjqA9-pv0xAuuh7GA/o.jpg", "price": "$$", "categories": [{"alias": "tea", "title": "Tea Rooms"}, {"alias": "gluten_free", "title": "Gluten-Free"}], "coordinates": {"latitude": 37.7841774486315, "longitude": -122.402068620684}, "url": "https://www.yelp.com/biz/samovar-tea-lounge-san-francisco-2?adjust_creative=Ac1Jga9ln_zF96nUd9t7WA&utm_campaign=yelp_api_v3&utm_medium=api_v3_business_search&utm_source=Ac1Jga9ln_zF96nUd9t7WA", "location": {"state": "CA", "address2": "", "city": "San Francisco", "address1": "730 Howard St", "display_address": ["730 Howard St", "Yerba Buena Gardens", "San Francisco, CA 94103"], "zip_code": "94103", "country": "US", "address3": "Yerba Buena Gardens"}, "phone": "+14152279400", "name": "Samovar Tea Lounge", "is_closed": false}
{"distance": 240.060580714, "transactions": ["restaurant_reservation"], "review_count": 3475, "display_phone": "(415) 243-0299", "id": "tropisue\u00f1o-san-francisco-3", "rating": 4.0, "image_url": "https://s3-media2.fl.yelpcdn.com/bphoto/hUZgDmue1VRfvIXai6I0wg/o.jpg", "price": "$$", "categories": [{"alias": "mexican", "title": "Mexican"}, {"alias": "cocktailbars", "title": "Cocktail Bars"}], "coordinates": {"latitude": 37.7853008468227, "longitude": -122.403918653727}, "url": "https://www.yelp.com/biz/tropisue%C3%B1o-san-francisco-3?adjust_creative=Ac1Jga9ln_zF96nUd9t7WA&utm_campaign=yelp_api_v3&utm_medium=api_v3_business_search&utm_source=Ac1Jga9ln_zF96nUd9t7WA", "location": {"state": "CA", "address2": "", "city": "San Francisco", "address1": "75 Yerba Buena Ln", "display_address": ["75 Yerba Buena Ln", "San Francisco, CA 94103"], "zip_code": "94103", "country": "US", "address3": ""}, "phone": "+14152430299", "name": "Tropisue\u00f1o", "is_closed": false}
{"distance": 685.9406679122, "transactions": ["delivery", "pickup", "restaurant_reservation"], "review_count": 888, "display_phone": "(415) 348-1234", "id": "north-india-restaurant-san-francisco", "rating": 4.0, "image_url": "https://s3-media1.fl.yelpcdn.com/bphoto/howYvOKNPXU9A5KUahEXLA/o.jpg", "price": "$$", "categories": [{"alias": "indpak", "title": "Indian"}], "coordinates": {"latitude": 37.787789124691, "longitude": -122.399305736113}, "url": "https://www.yelp.com/biz/north-india-restaurant-san-francisco?adjust_creative=Ac1Jga9ln_zF96nUd9t7WA&utm_campaign=yelp_api_v3&utm_medium=api_v3_business_search&utm_source=Ac1Jga9ln_zF96nUd9t7WA", "location": {"state": "CA", "address2": "", "city": "San Francisco", "address1": "123 Second St", "display_address": ["123 Second St", "San Francisco, CA 94105"], "zip_code": "94105", "country": "US", "address3": ""}, "phone": "+14153481234", "name": "North India Restaurant", "is_closed": false}
{"distance": 277.222333456, "transactions": ["restaurant_reservation"], "review_count": 2788, "display_phone": "(415) 348-8800", "id": "zero-zero-san-francisco", "rating": 4.0, "image_url": "https://s3-media1.fl.yelpcdn.com/bphoto/0Yva3WnJe2QWZzmaAfdEbA/o.jpg", "price": "$$", "categories": [{"alias": "pizza", "title": "Pizza"}, {"alias": "italian", "title": "Italian"}, {"alias": "cocktailbars", "title": "Cocktail Bars"}], "coordinates": {"latitude": 37.78163, "longitude": -122.40204}, "url": "https://www.yelp.com/biz/zero-zero-san-francisco?adjust_creative=Ac1Jga9ln_zF96nUd9t7WA&utm_campaign=yelp_api_v3&utm_medium=api_v3_business_search&utm_source=Ac1Jga9ln_zF96nUd9t7WA", "location": {"state": "CA", "address2": "", "city": "San Francisco", "address1": "826 Folsom St", "display_address": ["826 Folsom St", "San Francisco, CA 94107"], "zip_code": "94107", "country": "US", "address3": ""}, "phone": "+14153488800", "name": "Zero Zero", "is_closed": false}
{"distance": 446.1123310536, "transactions": [], "review_count": 141, "display_phone": "(415) 284-4000", "id": "st-regis-hotel-lobby-bar-san-francisco", "rating": 4.0, "image_url": "https://s3-media2.fl.yelpcdn.com/bphoto/AqXA8Y_G-0pMHZbZq_sCVg/o.jpg", "price": "$$$", "categories": [{"alias": "bars", "title": "Bars"}], "coordinates": {"latitude": 37.7862892150879, "longitude": -122.401374816895}, "url": "https://www.yelp.com/biz/st-regis-hotel-lobby-bar-san-francisco?adjust_creative=Ac1Jga9ln_zF96nUd9t7WA&utm_campaign=yelp_api_v3&utm_medium=api_v3_business_search&utm_source=Ac1Jga9ln_zF96nUd9t7WA", "location": {"state": "CA", "address2": "", "city": "San Francisco", "address1": "125 3rd St", "display_address": ["125 3rd St", "San Francisco, CA 94103"], "zip_code": "94103", "country": "US", "address3": ""}, "phone": "+14152844000", "name": "St. Regis Hotel Lobby Bar", "is_closed": false}
{"distance": 571.7773713657999, "transactions": [], "review_count": 861, "display_phone": "(415) 512-1693", "id": "pazzia-restaurant-and-pizzeria-san-francisco", "rating": 4.0, "image_url": "https://s3-media1.fl.yelpcdn.com/bphoto/ow4Ymz0MMg49-usfGeiHdA/o.jpg", "price": "$$", "categories": [{"alias": "italian", "title": "Italian"}, {"alias": "pizza", "title": "Pizza"}], "coordinates": {"latitude": 37.7834151615544, "longitude": -122.398016998777}, "url": "https://www.yelp.com/biz/pazzia-restaurant-and-pizzeria-san-francisco?adjust_creative=Ac1Jga9ln_zF96nUd9t7WA&utm_campaign=yelp_api_v3&utm_medium=api_v3_business_search&utm_source=Ac1Jga9ln_zF96nUd9t7WA", "location": {"state": "CA", "address2": "", "city": "San Francisco", "address1": "337 3rd St", "display_address": ["337 3rd St", "San Francisco, CA 94107"], "zip_code": "94107", "country": "US", "address3": ""}, "phone": "+14155121693", "name": "Pazzia Restaurant & Pizzeria", "is_closed": false}
{"distance": 787.9981388304, "transactions": [], "review_count": 1518, "display_phone": "(415) 861-1313", "id": "sightglass-coffee-san-francisco-7", "rating": 4.0, "image_url": "https://s3-media1.fl.yelpcdn.com/bphoto/kELSgPJLo8O-chG_bDqbmw/o.jpg", "price": "$$", "categories": [{"alias": "coffee", "title": "Coffee & Tea"}], "coordinates": {"latitude": 37.7768998, "longitude": -122.4086371}, "url": "https://www.yelp.com/biz/sightglass-coffee-san-francisco-7?adjust_creative=Ac1Jga9ln_zF96nUd9t7WA&utm_campaign=yelp_api_v3&utm_medium=api_v3_business_search&utm_source=Ac1Jga9ln_zF96nUd9t7WA", "location": {"state": "CA", "address2": "", "city": "San Francisco", "address1": "270 Seventh St", "display_address": ["270 Seventh St", "San Francisco, CA 94103"], "zip_code": "94103", "country": "US", "address3": null}, "phone": "+14158611313", "name": "Sightglass Coffee", "is_closed": false}
{"distance": 696.9587084476, "transactions": [], "review_count": 207, "display_phone": "(415) 863-1514", "id": "tony-baloneys-san-francisco", "rating": 4.0, "image_url": "https://s3-media4.fl.yelpcdn.com/bphoto/4GDzszKTYVEerMAhJ8plGg/o.jpg", "price": "$", "categories": [{"alias": "delis", "title": "Delis"}, {"alias": "sandwiches", "title": "Sandwiches"}, {"alias": "breakfast_brunch", "title": "Breakfast & Brunch"}], "coordinates": {"latitude": 37.778187, "longitude": -122.409355}, "url": "https://www.yelp.com/biz/tony-baloneys-san-francisco?adjust_creative=Ac1Jga9ln_zF96nUd9t7WA&utm_campaign=yelp_api_v3&utm_medium=api_v3_business_search&utm_source=Ac1Jga9ln_zF96nUd9t7WA", "location": {"state": "CA", "address2": "", "city": "San Francisco", "address1": "1098 Howard St", "display_address": ["1098 Howard St", "San Francisco, CA 94103"], "zip_code": "94103", "country": "US", "address3": ""}, "phone": "+14158631514", "name": "Tony Baloney's", "is_closed": false}
{"distance": 287.986886848, "transactions": ["pickup"], "review_count": 988, "display_phone": "(415) 882-7188", "id": "t\u00edn-vietnamese-cuisine-san-francisco-3", "rating": 4.0, "image_url": "https://s3-media4.fl.yelpcdn.com/bphoto/SWeY4D5_8R9Xsjt_qbCRYg/o.jpg", "price": "$$", "categories": [{"alias": "vietnamese", "title": "Vietnamese"}, {"alias": "noodles", "title": "Noodles"}], "coordinates": {"latitude": 37.780772, "longitude": -122.40568}, "url": "https://www.yelp.com/biz/t%C3%ADn-vietnamese-cuisine-san-francisco-3?adjust_creative=Ac1Jga9ln_zF96nUd9t7WA&utm_campaign=yelp_api_v3&utm_medium=api_v3_business_search&utm_source=Ac1Jga9ln_zF96nUd9t7WA", "location": {"state": "CA", "address2": null, "city": "San Francisco", "address1": "937 Howard St", "display_address": ["937 Howard St", "San Francisco, CA 94103"], "zip_code": "94103", "country": "US", "address3": ""}, "phone": "+14158827188", "name": "T\u00edn Vietnamese Cuisine", "is_closed": false}
{"distance": 698.4851513442, "transactions": ["delivery", "pickup", "restaurant_reservation"], "review_count": 310, "display_phone": "(415) 278-9991", "id": "lao-table-san-francisco", "rating": 4.0, "image_url": "https://s3-media4.fl.yelpcdn.com/bphoto/h4dZTWc31NQtZpgynQi4ow/o.jpg", "price": "$$", "categories": [{"alias": "laotian", "title": "Laotian"}, {"alias": "thai", "title": "Thai"}], "coordinates": {"latitude": 37.78752, "longitude": -122.39872}, "url": "https://www.yelp.com/biz/lao-table-san-francisco?adjust_creative=Ac1Jga9ln_zF96nUd9t7WA&utm_campaign=yelp_api_v3&utm_medium=api_v3_business_search&utm_source=Ac1Jga9ln_zF96nUd9t7WA", "location": {"state": "CA", "address2": null, "city": "San Francisco", "address1": "149 2nd St", "display_address": ["149 2nd St", "San Francisco, CA 94105"], "zip_code": "94105", "country": "US", "address3": ""}, "phone": "+14152789991", "name": "Lao Table", "is_closed": false}
