{"rating": 5.0, "review_count": 20, "name": "Norcal Functional Fitness", "url": "https://www.yelp.com/biz/norcal-functional-fitness-campbell?adjust_creative=Ac1Jga9ln_zF96nUd9t7WA&utm_campaign=yelp_api_v3&utm_medium=api_v3_business_search&utm_source=Ac1Jga9ln_zF96nUd9t7WA", "transactions": [], "coordinates": {"latitude": 37.2795976, "longitude": -121.939219}, "phone": "+18885236724", "image_url": "https://s3-media3.fl.yelpcdn.com/bphoto/UGu4PlkjLjDzkbVR5pwmFw/o.jpg", "is_closed": false, "display_phone": "(888) 523-6724", "time_spent_minutes": 120, "id": "norcal-functional-fitness-campbell", "categories": [{"alias": "healthtrainers", "title": "Trainers"}, {"alias": "gyms", "title": "Gyms"}], "location": {"city": "Campbell", "display_address": ["529 Forman Dr", "Campbell, CA 95008"], "country": "US", "address2": null, "address3": "", "state": "CA", "address1": "529 Forman Dr", "zip_code": "95008"}}
{"rating": 3.5, "review_count": 17, "name": "West Marine", "url": "https://www.yelp.com/biz/west-marine-san-carlos-2?adjust_creative=Ac1Jga9ln_zF96nUd9t7WA&utm_campaign=yelp_api_v3&utm_medium=api_v3_business_search&utm_source=Ac1Jga9ln_zF96nUd9t7WA", "transactions": [], "coordinates": {"latitude": 37.5037411, "longitude": -122.2467572}, "phone": "+16505932070", "image_url": "https://s3-media3.fl.yelpcdn.com/bphoto/aChiKguVZYsl0MOvDumT8Q/o.jpg", "is_closed": false, "display_phone": "(650) 593-2070", "time_spent_minutes": 120, "id": "west-marine-san-carlos-2", "categories": [{"alias": "outdoorgear", "title": "Outdoor Gear"}, {"alias": "huntingfishingsupplies", "title": "Hunting & Fishing Supplies"}, {"alias": "boatdealers", "title": "Boat Dealers"}], "location": {"city": "San Carlos", "display_address": ["1119 Industrial Rd", "Ste 2", "San Carlos, CA 94070"], "country": "US", "address2": "Ste 2", "address3": "", "state": "CA", "address1": "1119 Industrial Rd", "zip_code": "94070"}}
{"rating": 5.0, "review_count": 230, "name": "Pleasant Limo", "url": "https://www.yelp.com/biz/pleasant-limo-san-francisco-2?adjust_creative=Ac1Jga9ln_zF96nUd9t7WA&utm_campaign=yelp_api_v3&utm_medium=api_v3_business_search&utm_source=Ac1Jga9ln_zF96nUd9t7WA", "transactions": [], "coordinates": {"latitude": 37.7859954833984, "longitude": -122.434875488281}, "phone": "+16506979999", "image_url": "https://s3-media1.fl.yelpcdn.com/bphoto/W_c4ZjgonDUeBZxYzbN_Bg/o.jpg", "is_closed": false, "display_phone": "(650) 697-9999", "time_spent_minutes": 120, "id": "pleasant-limo-san-francisco-2", "categories": [{"alias": "airport_shuttles", "title": "Airport Shuttles"}, {"alias": "winetours", "title": "Wine Tours"}], "location": {"city": "San Francisco", "display_address": ["San Francisco, CA 94115"], "country": "US", "address2": "", "address3": "", "state": "CA", "address1": "", "zip_code": "94115"}}
{"rating": 3.5, "review_count": 378, "name": "Hotel Paradox Autograph Collection", "transactions": [], "url": "https://www.yelp.com/biz/hotel-paradox-autograph-collection-santa-cruz?adjust_creative=Ac1Jga9ln_zF96nUd9t7WA&utm_campaign=yelp_api_v3&utm_medium=api_v3_business_search&utm_source=Ac1Jga9ln_zF96nUd9t7WA", "price": "$$$", "location": {"city": "Santa Cruz", "display_address": ["611 Ocean Street", "Santa Cruz, CA 95060"], "country": "US", "address2": "", "address3": "", "state": "CA", "address1": "611 Ocean Street", "zip_code": "95060"}, "coordinates": {"latitude": 36.976846, "longitude": -122.020738}, "phone": "+18314257100", "image_url": "https://s3-media1.fl.yelpcdn.com/bphoto/5ZC048lO1qK74ZDQw3wsmQ/o.jpg", "is_closed": false, "display_phone": "(831) 425-7100", "time_spent_minutes": 120, "id": "hotel-paradox-autograph-collection-santa-cruz", "categories": [{"alias": "hotels", "title": "Hotels"}, {"alias": "venues", "title": "Venues & Event Spaces"}]}
{"rating": 4.5, "review_count": 36, "name": "Green Tortoise Adventure Travel", "url": "https://www.yelp.com/biz/green-tortoise-adventure-travel-san-francisco?adjust_creative=Ac1Jga9ln_zF96nUd9t7WA&utm_campaign=yelp_api_v3&utm_medium=api_v3_business_search&utm_source=Ac1Jga9ln_zF96nUd9t7WA", "transactions": [], "coordinates": {"latitude": 37.7981769, "longitude": -122.4053141}, "phone": "+18008678647", "image_url": "https://s3-media2.fl.yelpcdn.com/bphoto/sQtTzbPDF8TcYH8ZoAJ-Og/o.jpg", "is_closed": false, "display_phone": "(800) 867-8647", "time_spent_minutes": 120, "id": "green-tortoise-adventure-travel-san-francisco", "categories": [{"alias": "tours", "title": "Tours"}, {"alias": "travelservices", "title": "Travel Services"}], "location": {"city": "San Francisco", "display_address": ["494 Broadway", "San Francisco, CA 94133"], "country": "US", "address2": "", "address3": "", "state": "CA", "address1": "494 Broadway", "zip_code": "94133"}}
{"rating": 4.0, "review_count": 932, "name": "The Ritz-Carlton, Half Moon Bay", "transactions": [], "url": "https://www.yelp.com/biz/the-ritz-carlton-half-moon-bay-half-moon-bay-2?adjust_creative=Ac1Jga9ln_zF96nUd9t7WA&utm_campaign=yelp_api_v3&utm_medium=api_v3_business_search&utm_source=Ac1Jga9ln_zF96nUd9t7WA", "price": "$$$$", "location": {"city": "Half Moon Bay", "display_address": ["1 Miramontes Point Rd", "Half Moon Bay, CA 94019"], "country": "US", "address2": "", "address3": "", "state": "CA", "address1": "1 Miramontes Point Rd", "zip_code": "94019"}, "coordinates": {"latitude": 37.4336827684647, "longitude": -122.441504181807}, "phone": "+16507127000", "image_url": "https://s3-media2.fl.yelpcdn.com/bphoto/4qlIkxqGuAL1QcGjhQFV0Q/o.jpg", "is_closed": false, "display_phone": "(650) 712-7000", "time_spent_minutes": 120, "id": "the-ritz-carlton-half-moon-bay-half-moon-bay-2", "categories": [{"alias": "hotels", "title": "Hotels"}]}
{"rating": 4.0, "review_count": 138, "name": "Live Fit Gym", "url": "https://www.yelp.com/biz/live-fit-gym-san-francisco-3?adjust_creative=Ac1Jga9ln_zF96nUd9t7WA&utm_campaign=yelp_api_v3&utm_medium=api_v3_business_search&utm_source=Ac1Jga9ln_zF96nUd9t7WA", "transactions": [], "coordinates": {"latitude": 37.7758803963661, "longitude": -122.422879859805}, "phone": "+14155254364", "image_url": "https://s3-media3.fl.yelpcdn.com/bphoto/U4fuMp1oghnHHHE8V7GcRQ/o.jpg", "is_closed": false, "display_phone": "(415) 525-4364", "time_spent_minutes": 120, "id": "live-fit-gym-san-francisco-3", "categories": [{"alias": "gyms", "title": "Gyms"}, {"alias": "healthtrainers", "title": "Trainers"}, {"alias": "massage_therapy", "title": "Massage Therapy"}], "location": {"city": "San Francisco", "display_address": ["301 Fell St", "San Francisco, CA 94102"], "country": "US", "address2": "", "address3": "", "state": "CA", "address1": "301 Fell St", "zip_code": "94102"}}
{"rating": 4.0, "review_count": 103, "name": "Rotary PlayGarden", "url": "https://www.yelp.com/biz/rotary-playgarden-san-jose?adjust_creative=Ac1Jga9ln_zF96nUd9t7WA&utm_campaign=yelp_api_v3&utm_medium=api_v3_business_search&utm_source=Ac1Jga9ln_zF96nUd9t7WA", "transactions": [], "coordinates": {"latitude": 37.34123, "longitude": -121.9043}, "phone": "+14085108208", "image_url": "https://s3-media2.fl.yelpcdn.com/bphoto/X19dtIOFgwfP4BY5TWU6aQ/o.jpg", "is_closed": false, "display_phone": "(408) 510-8208", "time_spent_minutes": 120, "id": "rotary-playgarden-san-jose", "categories": [{"alias": "playgrounds", "title": "Playgrounds"}, {"alias": "parks", "title": "Parks"}], "location": {"city": "San Jose", "display_address": ["490 Coleman Ave", "San Jose, CA 95110"], "country": "US", "address2": "", "address3": "", "state": "CA", "address1": "490 Coleman Ave", "zip_code": "95110"}}
{"rating": 4.5, "review_count": 118, "name": "Mother Lode River Center", "url": "https://www.yelp.com/biz/mother-lode-river-center-lotus?adjust_creative=Ac1Jga9ln_zF96nUd9t7WA&utm_campaign=yelp_api_v3&utm_medium=api_v3_business_search&utm_source=Ac1Jga9ln_zF96nUd9t7WA", "transactions": [], "coordinates": {"latitude": 38.8197155122726, "longitude": -120.931749343872}, "phone": "+15306264187", "image_url": "https://s3-media1.fl.yelpcdn.com/bphoto/yKjlbN1AA5fy5IIiLwknDg/o.jpg", "is_closed": false, "display_phone": "(530) 626-4187", "time_spent_minutes": 120, "id": "mother-lode-river-center-lotus", "categories": [{"alias": "rafting", "title": "Rafting/Kayaking"}, {"alias": "tours", "title": "Tours"}, {"alias": "challengecourses", "title": "Challenge Courses"}], "location": {"city": "Lotus", "display_address": ["6280 Hwy 49", "Lotus, CA 95651"], "country": "US", "address2": null, "address3": "", "state": "CA", "address1": "6280 Hwy 49", "zip_code": "95651"}}
