{"rating": 3.5, "review_count": 8, "name": "San Gregorio Beach", "url": "https://www.yelp.com/biz/san-gregorio-beach-south-coastside?adjust_creative=Ac1Jga9ln_zF96nUd9t7WA&utm_campaign=yelp_api_v3&utm_medium=api_v3_business_search&utm_source=Ac1Jga9ln_zF96nUd9t7WA", "transactions": [], "coordinates": {"latitude": 37.3190725000001, "longitude": -122.274272499996}, "phone": "+14157657697", "image_url": "", "is_closed": false, "display_phone": "(415) 765-7697", "time_spent_minutes": 180, "id": "san-gregorio-beach-south-coastside", "categories": [{"alias": "beaches", "title": "Beaches"}], "location": {"city": "South Coastside", "display_address": ["Hwy 1 And Hwy 84", "South Coastside, CA 94060"], "country": "US", "address2": "", "address3": "", "state": "CA", "address1": "Hwy 1 And Hwy 84", "zip_code": "94060"}}
{"rating": 3.5, "review_count": 63, "name": "Webb Ranch", "url": "https://www.yelp.com/biz/webb-ranch-portola-valley-21?adjust_creative=Ac1Jga9ln_zF96nUd9t7WA&utm_campaign=yelp_api_v3&utm_medium=api_v3_business_search&utm_source=Ac1Jga9ln_zF96nUd9t7WA", "transactions": [], "coordinates": {"latitude": 37.4058196832791, "longitude": -122.194094436627}, "phone": "+16508547755", "image_url": "https://s3-media3.fl.yelpcdn.com/bphoto/f8XzSFMZPk7iaLKaGfRV_A/o.jpg", "is_closed": false, "display_phone": "(650) 854-7755", "time_spent_minutes": 180, "id": "webb-ranch-portola-valley-21", "categories": [{"alias": "horsebackriding", "title": "Horseback Riding"}, {"alias": "horse_boarding", "title": "Horse Boarding"}], "location": {"city": "Portola Valley", "display_address": ["2720 Alpine Rd", "Portola Valley, CA 94028"], "country": "US", "address2": null, "address3": "", "state": "CA", "address1": "2720 Alpine Rd", "zip_code": "94028"}}
{"rating": 4.5, "review_count": 306, "name": "Lafayette Reservoir", "url": "https://www.yelp.com/biz/lafayette-reservoir-lafayette?adjust_creative=Ac1Jga9ln_zF96nUd9t7WA&utm_campaign=yelp_api_v3&utm_medium=api_v3_business_search&utm_source=Ac1Jga9ln_zF96nUd9t7WA", "transactions": [], "coordinates": {"latitude": 37.884395916043, "longitude": -122.14332351044}, "phone": "+19252849669", "image_url": "https://s3-media2.fl.yelpcdn.com/bphoto/pLl3P51OY3hAiohl1iVd9A/o.jpg", "is_closed": false, "display_phone": "(925) 284-9669", "time_spent_minutes": 180, "id": "lafayette-reservoir-lafayette", "categories": [{"alias": "parks", "title": "Parks"}], "location": {"city": "Lafayette", "display_address": ["3849 Mount Diablo Blvd", "Lafayette, CA 94549"], "country": "US", "address2": "", "address3": "", "state": "CA", "address1": "3849 Mount Diablo Blvd", "zip_code": "94549"}}
{"rating": 5.0, "review_count": 10, "name": "Bay Area Repairs", "url": "https://www.yelp.com/biz/bay-area-repairs-san-jose-6?adjust_creative=Ac1Jga9ln_zF96nUd9t7WA&utm_campaign=yelp_api_v3&utm_medium=api_v3_business_search&utm_source=Ac1Jga9ln_zF96nUd9t7WA", "transactions": [], "coordinates": {"latitude": 37.33545, "longitude": -121.87693}, "phone": "+14085408663", "image_url": "", "is_closed": false, "display_phone": "(408) 540-8663", "time_spent_minutes": 180, "id": "bay-area-repairs-san-jose-6", "categories": [{"alias": "boating", "title": "Boating"}, {"alias": "boatrepair", "title": "Boat Repair"}], "location": {"city": "San Jose", "display_address": ["San Jose, CA 95112"], "country": "US", "address2": "", "address3": "", "state": "CA", "address1": "", "zip_code": "95112"}}
{"rating": 5.0, "review_count": 79, "name": "Wild Wave Sport Fishing Charters", "url": "https://www.yelp.com/biz/wild-wave-sport-fishing-charters-san-francisco?adjust_creative=Ac1Jga9ln_zF96nUd9t7WA&utm_campaign=yelp_api_v3&utm_medium=api_v3_business_search&utm_source=Ac1Jga9ln_zF96nUd9t7WA", "transactions": [], "coordinates": {"latitude": 37.8082188546015, "longitude": -122.416711773665}, "phone": "+14155352533", "image_url": "https://s3-media2.fl.yelpcdn.com/bphoto/EQj8eNvMzhvVTrtiJznBVg/o.jpg", "is_closed": false, "display_phone": "(415) 535-2533", "time_spent_minutes": 180, "id": "wild-wave-sport-fishing-charters-san-francisco", "categories": [{"alias": "boatcharters", "title": "Boat Charters"}, {"alias": "boating", "title": "Boating"}, {"alias": "fishing", "title": "Fishing"}], "location": {"city": "San Francisco", "display_address": ["250 Jefferson St", "Berth 9", "San Francisco, CA 94133"], "country": "US", "address2": "", "address3": "Berth 9", "state": "CA", "address1": "250 Jefferson St", "zip_code": "94133"}}
{"rating": 4.5, "review_count": 57, "name": "Hassett Ace Hardware", "transactions": [], "url": "https://www.yelp.com/biz/hassett-ace-hardware-half-moon-bay-2?adjust_creative=Ac1Jga9ln_zF96nUd9t7WA&utm_campaign=yelp_api_v3&utm_medium=api_v3_business_search&utm_source=Ac1Jga9ln_zF96nUd9t7WA", "price": "$$", "location": {"city": "Half Moon Bay", "display_address": ["111 Main St", "Half Moon Bay, CA 94019"], "country": "US", "address2": "", "address3": "", "state": "CA", "address1": "111 Main St", "zip_code": "94019"}, "coordinates": {"latitude": 37.4683866912696, "longitude": -122.430567741394}, "phone": "+16507265505", "image_url": "https://s3-media3.fl.yelpcdn.com/bphoto/Ohnp-yCYZVCcMlIiRiNkxg/o.jpg", "is_closed": false, "display_phone": "(650) 726-5505", "time_spent_minutes": 180, "id": "hassett-ace-hardware-half-moon-bay-2", "categories": [{"alias": "hardware", "title": "Hardware Stores"}, {"alias": "knifesharpening", "title": "Knife Sharpening"}]}
{"rating": 4.5, "review_count": 550, "name": "Big Basin Redwoods State Park", "url": "https://www.yelp.com/biz/big-basin-redwoods-state-park-boulder-creek?adjust_creative=Ac1Jga9ln_zF96nUd9t7WA&utm_campaign=yelp_api_v3&utm_medium=api_v3_business_search&utm_source=Ac1Jga9ln_zF96nUd9t7WA", "transactions": [], "coordinates": {"latitude": 37.1720834, "longitude": -122.2221916}, "phone": "+18313388860", "image_url": "https://s3-media3.fl.yelpcdn.com/bphoto/yyYCrdCNV1xtI5MSkzXV1Q/o.jpg", "is_closed": false, "display_phone": "(831) 338-8860", "time_spent_minutes": 180, "id": "big-basin-redwoods-state-park-boulder-creek", "categories": [{"alias": "parks", "title": "Parks"}, {"alias": "campgrounds", "title": "Campgrounds"}, {"alias": "hiking", "title": "Hiking"}], "location": {"city": "Boulder Creek", "display_address": ["21600 Big Basin Way", "Boulder Creek, CA 95006"], "country": "US", "address2": null, "address3": "", "state": "CA", "address1": "21600 Big Basin Way", "zip_code": "95006"}}
{"rating": 4.5, "review_count": 85, "name": "Bean Hollow State Beach", "url": "https://www.yelp.com/biz/bean-hollow-state-beach-pescadero?adjust_creative=Ac1Jga9ln_zF96nUd9t7WA&utm_campaign=yelp_api_v3&utm_medium=api_v3_business_search&utm_source=Ac1Jga9ln_zF96nUd9t7WA", "transactions": [], "coordinates": {"latitude": 37.2217919537856, "longitude": -122.406107247739}, "phone": "+16508792170", "image_url": "https://s3-media3.fl.yelpcdn.com/bphoto/Qqrvon4u0pEeBe0QNVd42w/o.jpg", "is_closed": false, "display_phone": "(650) 879-2170", "time_spent_minutes": 180, "id": "bean-hollow-state-beach-pescadero", "categories": [{"alias": "beaches", "title": "Beaches"}], "location": {"city": "Pescadero", "display_address": ["11000 Cabrillo Hwy", "Pescadero, CA 94060"], "country": "US", "address2": null, "address3": "", "state": "CA", "address1": "11000 Cabrillo Hwy", "zip_code": "94060"}}
{"rating": 4.5, "review_count": 30, "name": "Black Mountain Trail", "url": "https://www.yelp.com/biz/black-mountain-trail-los-altos?adjust_creative=Ac1Jga9ln_zF96nUd9t7WA&utm_campaign=yelp_api_v3&utm_medium=api_v3_business_search&utm_source=Ac1Jga9ln_zF96nUd9t7WA", "transactions": [], "coordinates": {"latitude": 37.332187, "longitude": -122.0727}, "phone": "+16506911200", "image_url": "https://s3-media1.fl.yelpcdn.com/bphoto/8111j6h1PItxcksULIpzig/o.jpg", "is_closed": false, "display_phone": "(650) 691-1200", "time_spent_minutes": 180, "id": "black-mountain-trail-los-altos", "categories": [{"alias": "hiking", "title": "Hiking"}], "location": {"city": "Los Altos", "display_address": ["Cristo Rey Dr", "Los Altos, CA 94024"], "country": "US", "address2": "", "address3": "", "state": "CA", "address1": "Cristo Rey Dr", "zip_code": "94024"}}
{"rating": 4.5, "review_count": 188, "name": "Ardenwood Historic Farm", "url": "https://www.yelp.com/biz/ardenwood-historic-farm-fremont?adjust_creative=Ac1Jga9ln_zF96nUd9t7WA&utm_campaign=yelp_api_v3&utm_medium=api_v3_business_search&utm_source=Ac1Jga9ln_zF96nUd9t7WA", "transactions": [], "coordinates": {"latitude": 37.5564805424492, "longitude": -122.050849447299}, "phone": "+18883272757", "image_url": "https://s3-media4.fl.yelpcdn.com/bphoto/65lB1FE3RxuF4-AmfTp0bw/o.jpg", "is_closed": false, "display_phone": "(888) 327-2757", "time_spent_minutes": 180, "id": "ardenwood-historic-farm-fremont", "categories": [{"alias": "parks", "title": "Parks"}], "location": {"city": "Fremont", "display_address": ["34600 Ardenwood Blvd", "Fremont, CA 94555"], "country": "US", "address2": "", "address3": "", "state": "CA", "address1": "34600 Ardenwood Blvd", "zip_code": "94555"}}
{"rating": 5.0, "review_count": 11, "name": "Guadalupe Oak Grove Park", "url": "https://www.yelp.com/biz/guadalupe-oak-grove-park-san-jose?adjust_creative=Ac1Jga9ln_zF96nUd9t7WA&utm_campaign=yelp_api_v3&utm_medium=api_v3_business_search&utm_source=Ac1Jga9ln_zF96nUd9t7WA", "transactions": [], "coordinates": {"latitude": 37.2359739045179, "longitude": -121.877701096237}, "phone": "+14087935510", "image_url": "https://s3-media2.fl.yelpcdn.com/bphoto/U_CoEAbXLUYMk94vKbIeqA/o.jpg", "is_closed": false, "display_phone": "(408) 793-5510", "time_spent_minutes": 180, "id": "guadalupe-oak-grove-park-san-jose", "categories": [{"alias": "parks", "title": "Parks"}], "location": {"city": "San Jose", "display_address": ["5929-5931 Thorntree Dr", "San Jose, CA 95120"], "country": "US", "address2": "", "address3": "", "state": "CA", "address1": "5929-5931 Thorntree Dr", "zip_code": "95120"}}
{"rating": 4.5, "review_count": 10, "name": "Rocket Farms", "transactions": [], "url": "https://www.yelp.com/biz/rocket-farms-half-moon-bay?adjust_creative=Ac1Jga9ln_zF96nUd9t7WA&utm_campaign=yelp_api_v3&utm_medium=api_v3_business_search&utm_source=Ac1Jga9ln_zF96nUd9t7WA", "price": "$", "location": {"city": "Half Moon Bay", "display_address": ["2651 N Cabrillo Hwy", "Half Moon Bay, CA 94019"], "country": "US", "address2": "", "address3": "", "state": "CA", "address1": "2651 N Cabrillo Hwy", "zip_code": "94019"}, "coordinates": {"latitude": 37.48992, "longitude": -122.44753}, "phone": "+16507124195", "image_url": "https://s3-media1.fl.yelpcdn.com/bphoto/aWnsT-Sc7j3P9bSFhXoN5A/o.jpg", "is_closed": false, "display_phone": "(650) 712-4195", "time_spent_minutes": 180, "id": "rocket-farms-half-moon-bay", "categories": [{"alias": "gardening", "title": "Nurseries & Gardening"}]}
{"rating": 3.5, "review_count": 108, "name": "Alameda Beach", "url": "https://www.yelp.com/biz/alameda-beach-alameda?adjust_creative=Ac1Jga9ln_zF96nUd9t7WA&utm_campaign=yelp_api_v3&utm_medium=api_v3_business_search&utm_source=Ac1Jga9ln_zF96nUd9t7WA", "transactions": [], "coordinates": {"latitude": 37.7596549437403, "longitude": -122.265965938568}, "phone": "", "image_url": "https://s3-media2.fl.yelpcdn.com/bphoto/NiAxVDRZQm10trVG2uzX5g/o.jpg", "is_closed": false, "display_phone": "", "time_spent_minutes": 180, "id": "alameda-beach-alameda", "categories": [{"alias": "beaches", "title": "Beaches"}], "location": {"city": "Alameda", "display_address": ["Shoreline Dr", "Alameda, CA 94501"], "country": "US", "address2": "", "address3": "", "state": "CA", "address1": "Shoreline Dr", "zip_code": "94501"}}
{"rating": 4.5, "review_count": 57, "name": "SummerWinds Nursery - Campbell", "transactions": [], "url": "https://www.yelp.com/biz/summerwinds-nursery-campbell-campbell?adjust_creative=Ac1Jga9ln_zF96nUd9t7WA&utm_campaign=yelp_api_v3&utm_medium=api_v3_business_search&utm_source=Ac1Jga9ln_zF96nUd9t7WA", "price": "$$", "location": {"city": "Campbell", "display_address": ["2460 S Winchester Blvd", "Campbell, CA 95008"], "country": "US", "address2": "", "address3": "", "state": "CA", "address1": "2460 S Winchester Blvd", "zip_code": "95008"}, "coordinates": {"latitude": 37.2788500536681, "longitude": -121.94899075264}, "phone": "+14088660171", "image_url": "https://s3-media2.fl.yelpcdn.com/bphoto/Gxs2M8J5ruvJhP_HjCQg5w/o.jpg", "is_closed": false, "display_phone": "(408) 866-0171", "time_spent_minutes": 180, "id": "summerwinds-nursery-campbell-campbell", "categories": [{"alias": "gardening", "title": "Nurseries & Gardening"}]}
{"rating": 4.0, "review_count": 37, "name": "Full Circle Farm", "url": "https://www.yelp.com/biz/full-circle-farm-sunnyvale?adjust_creative=Ac1Jga9ln_zF96nUd9t7WA&utm_campaign=yelp_api_v3&utm_medium=api_v3_business_search&utm_source=Ac1Jga9ln_zF96nUd9t7WA", "transactions": [], "coordinates": {"latitude": 37.346067517843, "longitude": -122.00783460004}, "phone": "+14084752531", "image_url": "https://s3-media1.fl.yelpcdn.com/bphoto/WhlJJvvaWvrCmY0PsfKCvQ/o.jpg", "is_closed": false, "display_phone": "(408) 475-2531", "time_spent_minutes": 180, "id": "full-circle-farm-sunnyvale", "categories": [{"alias": "farms", "title": "Farms"}], "location": {"city": "Sunnyvale", "display_address": ["1055 Dunford Way", "Sunnyvale, CA 94087"], "country": "US", "address2": "", "address3": "", "state": "CA", "address1": "1055 Dunford Way", "zip_code": "94087"}}
{"rating": 4.0, "review_count": 125, "name": "Ed Levin County Park", "url": "https://www.yelp.com/biz/ed-levin-county-park-milpitas-2?adjust_creative=Ac1Jga9ln_zF96nUd9t7WA&utm_campaign=yelp_api_v3&utm_medium=api_v3_business_search&utm_source=Ac1Jga9ln_zF96nUd9t7WA", "transactions": [], "coordinates": {"latitude": 37.4487121, "longitude": -121.8473934}, "phone": "+14082626980", "image_url": "https://s3-media2.fl.yelpcdn.com/bphoto/KBRzntO_QjG1tpwNKEB1iw/o.jpg", "is_closed": false, "display_phone": "(408) 262-6980", "time_spent_minutes": 180, "id": "ed-levin-county-park-milpitas-2", "categories": [{"alias": "dog_parks", "title": "Dog Parks"}, {"alias": "fishing", "title": "Fishing"}], "location": {"city": "Milpitas", "display_address": ["3100 Calaveras Rd", "Milpitas, CA 95035"], "country": "US", "address2": null, "address3": "", "state": "CA", "address1": "3100 Calaveras Rd", "zip_code": "95035"}}
{"rating": 3.5, "review_count": 3, "name": "Enjoy the Mountain ATV Tours", "url": "https://www.yelp.com/biz/enjoy-the-mountain-atv-tours-tracy?adjust_creative=Ac1Jga9ln_zF96nUd9t7WA&utm_campaign=yelp_api_v3&utm_medium=api_v3_business_search&utm_source=Ac1Jga9ln_zF96nUd9t7WA", "transactions": [], "coordinates": {"latitude": 37.62749, "longitude": -121.54123}, "phone": "+18443866691", "image_url": "https://s3-media3.fl.yelpcdn.com/bphoto/gqqhq3z5gEm6qm6r3vXxzw/o.jpg", "is_closed": false, "display_phone": "(844) 386-6691", "time_spent_minutes": 180, "id": "enjoy-the-mountain-atv-tours-tracy", "categories": [{"alias": "atvrentals", "title": "ATV Rentals/Tours"}, {"alias": "hiking", "title": "Hiking"}, {"alias": "rvrental", "title": "RV Rental"}], "location": {"city": "Tracy", "display_address": ["18600 W Corral Hollow Rd", "Tracy, CA 95376"], "country": "US", "address2": null, "address3": "", "state": "CA", "address1": "18600 W Corral Hollow Rd", "zip_code": "95376"}}
{"rating": 4.0, "review_count": 26, "name": "Blufftop Coastal Park", "url": "https://www.yelp.com/biz/blufftop-coastal-park-half-moon-bay?adjust_creative=Ac1Jga9ln_zF96nUd9t7WA&utm_campaign=yelp_api_v3&utm_medium=api_v3_business_search&utm_source=Ac1Jga9ln_zF96nUd9t7WA", "transactions": [], "coordinates": {"latitude": 37.4553059536226, "longitude": -122.444000244141}, "phone": "", "image_url": "https://s3-media3.fl.yelpcdn.com/bphoto/VPh5dCBMpsv0gGQaEvuTCw/o.jpg", "is_closed": false, "display_phone": "", "time_spent_minutes": 180, "id": "blufftop-coastal-park-half-moon-bay", "categories": [{"alias": "beaches", "title": "Beaches"}, {"alias": "hiking", "title": "Hiking"}, {"alias": "horsebackriding", "title": "Horseback Riding"}], "location": {"city": "Half Moon Bay", "display_address": ["152 Poplar St", "Half Moon Bay, CA 94019"], "country": "US", "address2": "", "address3": "", "state": "CA", "address1": "152 Poplar St", "zip_code": "94019"}}
{"rating": 5.0, "review_count": 9, "name": "Alchemy Sailing Adventures", "url": "https://www.yelp.com/biz/alchemy-sailing-adventures-san-francisco?adjust_creative=Ac1Jga9ln_zF96nUd9t7WA&utm_campaign=yelp_api_v3&utm_medium=api_v3_business_search&utm_source=Ac1Jga9ln_zF96nUd9t7WA", "transactions": [], "coordinates": {"latitude": 37.7749295, "longitude": -122.4194155}, "phone": "+13109088429", "image_url": "https://s3-media2.fl.yelpcdn.com/bphoto/KOAS63UzEn0evTXsNhqD2A/o.jpg", "is_closed": false, "display_phone": "(310) 908-8429", "time_spent_minutes": 180, "id": "alchemy-sailing-adventures-san-francisco", "categories": [{"alias": "boating", "title": "Boating"}], "location": {"city": "San Francisco", "display_address": ["San Francisco, CA 94111"], "country": "US", "address2": "", "address3": "", "state": "CA", "address1": "", "zip_code": "94111"}}
{"rating": 5.0, "review_count": 7, "name": "Ambience Garden Design", "url": "https://www.yelp.com/biz/ambience-garden-design-sunnyvale-2?adjust_creative=Ac1Jga9ln_zF96nUd9t7WA&utm_campaign=yelp_api_v3&utm_medium=api_v3_business_search&utm_source=Ac1Jga9ln_zF96nUd9t7WA", "transactions": [], "coordinates": {"latitude": 37.3879814147949, "longitude": -122.015441894531}, "phone": "+14089906999", "image_url": "https://s3-media3.fl.yelpcdn.com/bphoto/Ynmt8mfi0AMVbv3mDwsBnA/o.jpg", "is_closed": false, "display_phone": "(408) 990-6999", "time_spent_minutes": 180, "id": "ambience-garden-design-sunnyvale-2", "categories": [{"alias": "landscaping", "title": "Landscaping"}, {"alias": "landscapearchitects", "title": "Landscape Architects"}], "location": {"city": "Sunnyvale", "display_address": ["Sunnyvale, CA 94085"], "country": "US", "address2": "", "address3": "", "state": "CA", "address1": "", "zip_code": "94085"}}
{"rating": 4.5, "review_count": 51, "name": "Frank's Yard Clean-Up", "url": "https://www.yelp.com/biz/franks-yard-clean-up-san-jose?adjust_creative=Ac1Jga9ln_zF96nUd9t7WA&utm_campaign=yelp_api_v3&utm_medium=api_v3_business_search&utm_source=Ac1Jga9ln_zF96nUd9t7WA", "transactions": [], "coordinates": {"latitude": 37.2524757385254, "longitude": -121.821792602539}, "phone": "+14088922684", "image_url": "https://s3-media1.fl.yelpcdn.com/bphoto/Q-Z_Dlw7QjtJZICfD6UHjw/o.jpg", "is_closed": false, "display_phone": "(408) 892-2684", "time_spent_minutes": 180, "id": "franks-yard-clean-up-san-jose", "categories": [{"alias": "landscaping", "title": "Landscaping"}, {"alias": "gardeners", "title": "Gardeners"}, {"alias": "junkremovalandhauling", "title": "Junk Removal & Hauling"}], "location": {"city": "San Jose", "display_address": ["San Jose, CA 95123"], "country": "US", "address2": "", "address3": "", "state": "CA", "address1": "", "zip_code": "95123"}}
{"rating": 4.0, "review_count": 24, "name": "Manresa Uplands State Beach", "url": "https://www.yelp.com/biz/manresa-uplands-state-beach-la-selva-beach?adjust_creative=Ac1Jga9ln_zF96nUd9t7WA&utm_campaign=yelp_api_v3&utm_medium=api_v3_business_search&utm_source=Ac1Jga9ln_zF96nUd9t7WA", "transactions": [], "coordinates": {"latitude": 36.920856, "longitude": -121.851303}, "phone": "+18317611795", "image_url": "https://s3-media3.fl.yelpcdn.com/bphoto/5kPc_4Y1BBSgoIDl-kh3nA/o.jpg", "is_closed": false, "display_phone": "(831) 761-1795", "time_spent_minutes": 180, "id": "manresa-uplands-state-beach-la-selva-beach", "categories": [{"alias": "beaches", "title": "Beaches"}], "location": {"city": "La Selva Beach", "display_address": ["205 Manresa Uplands Rd", "La Selva Beach, CA 95076"], "country": "US", "address2": "", "address3": "", "state": "CA", "address1": "205 Manresa Uplands Rd", "zip_code": "95076"}}
{"rating": 4.5, "review_count": 2, "name": "Clipper Cove", "url": "https://www.yelp.com/biz/clipper-cove-san-francisco?adjust_creative=Ac1Jga9ln_zF96nUd9t7WA&utm_campaign=yelp_api_v3&utm_medium=api_v3_business_search&utm_source=Ac1Jga9ln_zF96nUd9t7WA", "transactions": [], "coordinates": {"latitude": 37.8142275303555, "longitude": -122.368940636516}, "phone": "", "image_url": "https://s3-media4.fl.yelpcdn.com/bphoto/ZOHhoiZ8OSwE_VlXx6nnxg/o.jpg", "is_closed": false, "display_phone": "", "time_spent_minutes": 180, "id": "clipper-cove-san-francisco", "categories": [{"alias": "boating", "title": "Boating"}, {"alias": "beaches", "title": "Beaches"}], "location": {"city": "San Francisco", "display_address": ["267 Treasure Island Rd", "San Francisco, CA 94130"], "country": "US", "address2": "", "address3": "", "state": "CA", "address1": "267 Treasure Island Rd", "zip_code": "94130"}}
{"rating": 4.0, "review_count": 2, "name": "Upper Guadalupe River Trail", "url": "https://www.yelp.com/biz/upper-guadalupe-river-trail-san-jose?adjust_creative=Ac1Jga9ln_zF96nUd9t7WA&utm_campaign=yelp_api_v3&utm_medium=api_v3_business_search&utm_source=Ac1Jga9ln_zF96nUd9t7WA", "transactions": [], "coordinates": {"latitude": 37.2443152767961, "longitude": -121.872213631868}, "phone": "+14087935510", "image_url": "https://s3-media4.fl.yelpcdn.com/bphoto/Z-V5XZ05dM2vGr62q8IJTA/o.jpg", "is_closed": false, "display_phone": "(408) 793-5510", "time_spent_minutes": 180, "id": "upper-guadalupe-river-trail-san-jose", "categories": [{"alias": "hiking", "title": "Hiking"}], "location": {"city": "San Jose", "display_address": ["1030 Coleman Rd", "San Jose, CA 95123"], "country": "US", "address2": "", "address3": "", "state": "CA", "address1": "1030 Coleman Rd", "zip_code": "95123"}}
{"rating": 4.5, "review_count": 3, "name": "Skyline Trail", "url": "https://www.yelp.com/biz/skyline-trail-saratoga?adjust_creative=Ac1Jga9ln_zF96nUd9t7WA&utm_campaign=yelp_api_v3&utm_medium=api_v3_business_search&utm_source=Ac1Jga9ln_zF96nUd9t7WA", "transactions": [], "coordinates": {"latitude": 37.2588500976562, "longitude": -122.122428894043}, "phone": "", "image_url": "https://s3-media4.fl.yelpcdn.com/bphoto/MNNl8gNirBJfe5i4TModlw/o.jpg", "is_closed": false, "display_phone": "", "time_spent_minutes": 180, "id": "skyline-trail-saratoga", "categories": [{"alias": "hiking", "title": "Hiking"}], "location": {"city": "Saratoga", "display_address": ["Skyline Blvd", "Highway 9 & 35", "Saratoga, CA 95070"], "country": "US", "address2": "", "address3": "Highway 9 & 35", "state": "CA", "address1": "Skyline Blvd", "zip_code": "95070"}}
{"rating": 4.0, "review_count": 22, "name": "Dawn Falls", "url": "https://www.yelp.com/biz/dawn-falls-larkspur?adjust_creative=Ac1Jga9ln_zF96nUd9t7WA&utm_campaign=yelp_api_v3&utm_medium=api_v3_business_search&utm_source=Ac1Jga9ln_zF96nUd9t7WA", "transactions": [], "coordinates": {"latitude": 37.9318, "longitude": -122.54829}, "phone": "", "image_url": "https://s3-media2.fl.yelpcdn.com/bphoto/nybd2gxnGgHIdaqkd11yLg/o.jpg", "is_closed": false, "display_phone": "", "time_spent_minutes": 180, "id": "dawn-falls-larkspur", "categories": [{"alias": "hiking", "title": "Hiking"}], "location": {"city": "Larkspur", "display_address": ["Madrone Ave At Redwood Ave", "Larkspur, CA 94939"], "country": "US", "address2": "", "address3": "", "state": "CA", "address1": "Madrone Ave At Redwood Ave", "zip_code": "94939"}}
{"rating": 4.5, "review_count": 11, "name": "Newman Landscapes", "url": "https://www.yelp.com/biz/newman-landscapes-pacifica-2?adjust_creative=Ac1Jga9ln_zF96nUd9t7WA&utm_campaign=yelp_api_v3&utm_medium=api_v3_business_search&utm_source=Ac1Jga9ln_zF96nUd9t7WA", "transactions": [], "coordinates": {"latitude": 37.6045303344727, "longitude": -122.482124328613}, "phone": "+16507355384", "image_url": "https://s3-media2.fl.yelpcdn.com/bphoto/Ol6bqP8_iOJo4Ch1yFBaaw/o.jpg", "is_closed": false, "display_phone": "(650) 735-5384", "time_spent_minutes": 180, "id": "newman-landscapes-pacifica-2", "categories": [{"alias": "contractors", "title": "Contractors"}, {"alias": "landscaping", "title": "Landscaping"}, {"alias": "gardeners", "title": "Gardeners"}], "location": {"city": "Pacifica", "display_address": ["Pacifica, CA 94044"], "country": "US", "address2": "", "address3": "", "state": "CA", "address1": "", "zip_code": "94044"}}
{"rating": 3.5, "review_count": 9, "name": "Coyote Creek Trail", "url": "https://www.yelp.com/biz/coyote-creek-trail-milpitas?adjust_creative=Ac1Jga9ln_zF96nUd9t7WA&utm_campaign=yelp_api_v3&utm_medium=api_v3_business_search&utm_source=Ac1Jga9ln_zF96nUd9t7WA", "transactions": [], "coordinates": {"latitude": 37.4261964, "longitude": -121.9237867}, "phone": "", "image_url": "https://s3-media1.fl.yelpcdn.com/bphoto/4uDLbDaE-Z7sehSHu-ssLA/o.jpg", "is_closed": false, "display_phone": "", "time_spent_minutes": 180, "id": "coyote-creek-trail-milpitas", "categories": [{"alias": "hiking", "title": "Hiking"}], "location": {"city": "Milpitas", "display_address": ["2 Ranch Dr", "Milpitas, CA 95035"], "country": "US", "address2": "", "address3": "", "state": "CA", "address1": "2 Ranch Dr", "zip_code": "95035"}}
{"rating": 4.0, "review_count": 2, "name": "Brooks Falls", "url": "https://www.yelp.com/biz/brooks-falls-pacifica?adjust_creative=Ac1Jga9ln_zF96nUd9t7WA&utm_campaign=yelp_api_v3&utm_medium=api_v3_business_search&utm_source=Ac1Jga9ln_zF96nUd9t7WA", "transactions": [], "coordinates": {"latitude": 37.58053, "longitude": -122.47626}, "phone": "+16503558289", "image_url": "", "is_closed": false, "display_phone": "(650) 355-8289", "time_spent_minutes": 180, "id": "brooks-falls-pacifica", "categories": [{"alias": "hiking", "title": "Hiking"}], "location": {"city": "Pacifica", "display_address": ["600 Oddstad Blvd", "Pacifica, CA 94044"], "country": "US", "address2": "", "address3": "", "state": "CA", "address1": "600 Oddstad Blvd", "zip_code": "94044"}}
{"rating": 5.0, "review_count": 5, "name": "R&R Fresh Herbs", "transactions": [], "url": "https://www.yelp.com/biz/r-and-r-fresh-herbs-pescadero?adjust_creative=Ac1Jga9ln_zF96nUd9t7WA&utm_campaign=yelp_api_v3&utm_medium=api_v3_business_search&utm_source=Ac1Jga9ln_zF96nUd9t7WA", "price": "$", "location": {"city": "Pescadero", "display_address": ["2310 Pescadero Rd", "Pescadero, CA 94060"], "country": "US", "address2": null, "address3": "", "state": "CA", "address1": "2310 Pescadero Rd", "zip_code": "94060"}, "coordinates": {"latitude": 37.2523942266997, "longitude": -122.378203645229}, "phone": "+16509540055", "image_url": "https://s3-media2.fl.yelpcdn.com/bphoto/xk9rEy5VYf2-9FLwBK7PNw/o.jpg", "is_closed": false, "display_phone": "(650) 954-0055", "time_spent_minutes": 180, "id": "r-and-r-fresh-herbs-pescadero", "categories": [{"alias": "markets", "title": "Fruits & Veggies"}, {"alias": "organic_stores", "title": "Organic Stores"}]}
{"rating": 4.5, "review_count": 83, "name": "Kayak Connection", "url": "https://www.yelp.com/biz/kayak-connection-santa-cruz?adjust_creative=Ac1Jga9ln_zF96nUd9t7WA&utm_campaign=yelp_api_v3&utm_medium=api_v3_business_search&utm_source=Ac1Jga9ln_zF96nUd9t7WA", "transactions": [], "coordinates": {"latitude": 36.9668053, "longitude": -122.0010707}, "phone": "+18314791121", "image_url": "https://s3-media1.fl.yelpcdn.com/bphoto/kc2qAWbeySknamUACU4deg/o.jpg", "is_closed": false, "display_phone": "(831) 479-1121", "time_spent_minutes": 180, "id": "kayak-connection-santa-cruz", "categories": [{"alias": "boating", "title": "Boating"}, {"alias": "tours", "title": "Tours"}, {"alias": "rafting", "title": "Rafting/Kayaking"}], "location": {"city": "Santa Cruz", "display_address": ["413 Lake Ave", "Ste 103", "Santa Cruz, CA 95062"], "country": "US", "address2": "Ste 103", "address3": "", "state": "CA", "address1": "413 Lake Ave", "zip_code": "95062"}}
{"rating": 4.5, "review_count": 338, "name": "Tilden Regional Park", "url": "https://www.yelp.com/biz/tilden-regional-park-berkeley-3?adjust_creative=Ac1Jga9ln_zF96nUd9t7WA&utm_campaign=yelp_api_v3&utm_medium=api_v3_business_search&utm_source=Ac1Jga9ln_zF96nUd9t7WA", "transactions": [], "coordinates": {"latitude": 37.8924664859915, "longitude": -122.248907089233}, "phone": "+15105442747", "image_url": "https://s3-media3.fl.yelpcdn.com/bphoto/LK03J3S36XNUzu5qlNKpzw/o.jpg", "is_closed": false, "display_phone": "(510) 544-2747", "time_spent_minutes": 180, "id": "tilden-regional-park-berkeley-3", "categories": [{"alias": "parks", "title": "Parks"}], "location": {"city": "Berkeley", "display_address": ["2501 Grizzly Peak Blvd", "Berkeley, CA 94708"], "country": "US", "address2": "", "address3": "", "state": "CA", "address1": "2501 Grizzly Peak Blvd", "zip_code": "94708"}}
{"rating": 4.5, "review_count": 17, "name": "Waddell Beach", "url": "https://www.yelp.com/biz/waddell-beach-davenport?adjust_creative=Ac1Jga9ln_zF96nUd9t7WA&utm_campaign=yelp_api_v3&utm_medium=api_v3_business_search&utm_source=Ac1Jga9ln_zF96nUd9t7WA", "transactions": [], "coordinates": {"latitude": 37.096949, "longitude": -122.279832}, "phone": "", "image_url": "https://s3-media1.fl.yelpcdn.com/bphoto/p7HtmPqvwe58MzAPY6aVrA/o.jpg", "is_closed": false, "display_phone": "", "time_spent_minutes": 180, "id": "waddell-beach-davenport", "categories": [{"alias": "beaches", "title": "Beaches"}], "location": {"city": "Davenport", "display_address": ["3600 Hwy 1", "Davenport, CA 95017"], "country": "US", "address2": null, "address3": "", "state": "CA", "address1": "3600 Hwy 1", "zip_code": "95017"}}
{"rating": 3.5, "review_count": 78, "name": "Poplar Beach", "url": "https://www.yelp.com/biz/poplar-beach-half-moon-bay?adjust_creative=Ac1Jga9ln_zF96nUd9t7WA&utm_campaign=yelp_api_v3&utm_medium=api_v3_business_search&utm_source=Ac1Jga9ln_zF96nUd9t7WA", "transactions": [], "coordinates": {"latitude": 37.4553059536226, "longitude": -122.444086074829}, "phone": "+16507268280", "image_url": "https://s3-media2.fl.yelpcdn.com/bphoto/L4wltkR-_-wEg4MZgaz6Gw/o.jpg", "is_closed": false, "display_phone": "(650) 726-8280", "time_spent_minutes": 180, "id": "poplar-beach-half-moon-bay", "categories": [{"alias": "beaches", "title": "Beaches"}, {"alias": "horsebackriding", "title": "Horseback Riding"}], "location": {"city": "Half Moon Bay", "display_address": ["Hwy 1 S", "Half Moon Bay, CA 94019"], "country": "US", "address2": "", "address3": "", "state": "CA", "address1": "Hwy 1 S", "zip_code": "94019"}}
{"rating": 4.0, "review_count": 5, "name": "Schoonmaker Beach", "url": "https://www.yelp.com/biz/schoonmaker-beach-sausalito?adjust_creative=Ac1Jga9ln_zF96nUd9t7WA&utm_campaign=yelp_api_v3&utm_medium=api_v3_business_search&utm_source=Ac1Jga9ln_zF96nUd9t7WA", "transactions": [], "coordinates": {"latitude": 37.8638591, "longitude": -122.4900444}, "phone": "", "image_url": "https://s3-media2.fl.yelpcdn.com/bphoto/E52KovkCV3SYwDAXxfOOzw/o.jpg", "is_closed": false, "display_phone": "", "time_spent_minutes": 180, "id": "schoonmaker-beach-sausalito", "categories": [{"alias": "beaches", "title": "Beaches"}], "location": {"city": "Sausalito", "display_address": ["99 Liberty Ship Way", "Sausalito, CA 94965"], "country": "US", "address2": "", "address3": "", "state": "CA", "address1": "99 Liberty Ship Way", "zip_code": "94965"}}
{"rating": 4.5, "review_count": 34, "name": "Mariquita Farms", "transactions": [], "url": "https://www.yelp.com/biz/mariquita-farms-san-francisco?adjust_creative=Ac1Jga9ln_zF96nUd9t7WA&utm_campaign=yelp_api_v3&utm_medium=api_v3_business_search&utm_source=Ac1Jga9ln_zF96nUd9t7WA", "price": "$", "location": {"city": "San Francisco", "display_address": ["San Francisco, CA"], "country": "US", "address2": null, "address3": "", "state": "CA", "address1": "", "zip_code": ""}, "coordinates": {"latitude": 37.7771186828613, "longitude": -122.419639587402}, "phone": "+18317066799", "image_url": "https://s3-media2.fl.yelpcdn.com/bphoto/5Xd_lzr6t86cOj-pquCUjA/o.jpg", "is_closed": false, "display_phone": "(831) 706-6799", "time_spent_minutes": 180, "id": "mariquita-farms-san-francisco", "categories": [{"alias": "markets", "title": "Fruits & Veggies"}]}
{"rating": 4.0, "review_count": 8, "name": "Hyde Street Beach", "url": "https://www.yelp.com/biz/hyde-street-beach-san-francisco?adjust_creative=Ac1Jga9ln_zF96nUd9t7WA&utm_campaign=yelp_api_v3&utm_medium=api_v3_business_search&utm_source=Ac1Jga9ln_zF96nUd9t7WA", "transactions": [], "coordinates": {"latitude": 37.807498, "longitude": -122.4218328}, "phone": "", "image_url": "https://s3-media1.fl.yelpcdn.com/bphoto/QZphKqsSVgN23TM2NooEeQ/o.jpg", "is_closed": false, "display_phone": "", "time_spent_minutes": 180, "id": "hyde-street-beach-san-francisco", "categories": [{"alias": "beaches", "title": "Beaches"}], "location": {"city": "San Francisco", "display_address": ["599 Jefferson St", "San Francisco, CA 94109"], "country": "US", "address2": null, "address3": "", "state": "CA", "address1": "599 Jefferson St", "zip_code": "94109"}}
{"rating": 4.5, "review_count": 13, "name": "The Garden Route Company", "url": "https://www.yelp.com/biz/the-garden-route-company-south-san-francisco-3?adjust_creative=Ac1Jga9ln_zF96nUd9t7WA&utm_campaign=yelp_api_v3&utm_medium=api_v3_business_search&utm_source=Ac1Jga9ln_zF96nUd9t7WA", "transactions": [], "coordinates": {"latitude": 37.6503996, "longitude": -122.3866046}, "phone": "+18005511123", "image_url": "https://s3-media2.fl.yelpcdn.com/bphoto/qoSrPfHx_AgrQ5NpblGhdg/o.jpg", "is_closed": false, "display_phone": "(800) 551-1123", "time_spent_minutes": 180, "id": "the-garden-route-company-south-san-francisco-3", "categories": [{"alias": "landscapearchitects", "title": "Landscape Architects"}], "location": {"city": "South San Francisco", "display_address": ["151 Haskins Way", "Ste E", "South San Francisco, CA 94080"], "country": "US", "address2": "Ste E", "address3": "", "state": "CA", "address1": "151 Haskins Way", "zip_code": "94080"}}
{"rating": 4.0, "review_count": 77, "name": "Stevens Creek Trail", "url": "https://www.yelp.com/biz/stevens-creek-trail-mountain-view?adjust_creative=Ac1Jga9ln_zF96nUd9t7WA&utm_campaign=yelp_api_v3&utm_medium=api_v3_business_search&utm_source=Ac1Jga9ln_zF96nUd9t7WA", "transactions": [], "coordinates": {"latitude": 37.4186401367188, "longitude": -122.076797485352}, "phone": "", "image_url": "https://s3-media2.fl.yelpcdn.com/bphoto/TA_ShtmeaaVT6YUxiRylVQ/o.jpg", "is_closed": false, "display_phone": "", "time_spent_minutes": 180, "id": "stevens-creek-trail-mountain-view", "categories": [{"alias": "hiking", "title": "Hiking"}], "location": {"city": "Mountain View", "display_address": ["Mountain View, CA 94043"], "country": "US", "address2": null, "address3": "", "state": "CA", "address1": null, "zip_code": "94043"}}
{"rating": 4.5, "review_count": 39, "name": "Johnson Lumber Ace Hardware", "transactions": [], "url": "https://www.yelp.com/biz/johnson-lumber-ace-hardware-morgan-hill?adjust_creative=Ac1Jga9ln_zF96nUd9t7WA&utm_campaign=yelp_api_v3&utm_medium=api_v3_business_search&utm_source=Ac1Jga9ln_zF96nUd9t7WA", "price": "$$", "location": {"city": "Morgan Hill", "display_address": ["600 Tennant Ave", "Morgan Hill, CA 95037"], "country": "US", "address2": "", "address3": "", "state": "CA", "address1": "600 Tennant Ave", "zip_code": "95037"}, "coordinates": {"latitude": 37.1165, "longitude": -121.63298}, "phone": "+14087781550", "image_url": "https://s3-media1.fl.yelpcdn.com/bphoto/Ixi0FS84Fqfq6fMydnWsBQ/o.jpg", "is_closed": false, "display_phone": "(408) 778-1550", "time_spent_minutes": 180, "id": "johnson-lumber-ace-hardware-morgan-hill", "categories": [{"alias": "hardware", "title": "Hardware Stores"}, {"alias": "buildingsupplies", "title": "Building Supplies"}]}
{"rating": 3.0, "review_count": 27, "name": "Tunitas Creek Beach", "url": "https://www.yelp.com/biz/tunitas-creek-beach-half-moon-bay?adjust_creative=Ac1Jga9ln_zF96nUd9t7WA&utm_campaign=yelp_api_v3&utm_medium=api_v3_business_search&utm_source=Ac1Jga9ln_zF96nUd9t7WA", "transactions": [], "coordinates": {"latitude": 37.3727684020996, "longitude": -122.404151916504}, "phone": "", "image_url": "https://s3-media2.fl.yelpcdn.com/bphoto/S9uo7JaBwkPLqfKVfFG8NQ/o.jpg", "is_closed": false, "display_phone": "", "time_spent_minutes": 180, "id": "tunitas-creek-beach-half-moon-bay", "categories": [{"alias": "hiking", "title": "Hiking"}, {"alias": "beaches", "title": "Beaches"}], "location": {"city": "Half Moon Bay", "display_address": ["23000 Cabrillo Hwy S", "Half Moon Bay, CA 94019"], "country": "US", "address2": "", "address3": "", "state": "CA", "address1": "23000 Cabrillo Hwy S", "zip_code": "94019"}}
{"rating": 4.5, "review_count": 128, "name": "Flowercraft Garden Center", "transactions": [], "url": "https://www.yelp.com/biz/flowercraft-garden-center-san-francisco?adjust_creative=Ac1Jga9ln_zF96nUd9t7WA&utm_campaign=yelp_api_v3&utm_medium=api_v3_business_search&utm_source=Ac1Jga9ln_zF96nUd9t7WA", "price": "$$", "location": {"city": "San Francisco", "display_address": ["550 Bayshore Blvd", "San Francisco, CA 94124"], "country": "US", "address2": "", "address3": "", "state": "CA", "address1": "550 Bayshore Blvd", "zip_code": "94124"}, "coordinates": {"latitude": 37.7391166687012, "longitude": -122.407379150391}, "phone": "+14158241900", "image_url": "https://s3-media2.fl.yelpcdn.com/bphoto/S6zJyE1_JAFvyamdrQHx3g/o.jpg", "is_closed": false, "display_phone": "(415) 824-1900", "time_spent_minutes": 180, "id": "flowercraft-garden-center-san-francisco", "categories": [{"alias": "gardening", "title": "Nurseries & Gardening"}]}
{"rating": 5.0, "review_count": 1, "name": "NorCal MasterCraft - San Jose", "url": "https://www.yelp.com/biz/norcal-mastercraft-san-jose-san-jose?adjust_creative=Ac1Jga9ln_zF96nUd9t7WA&utm_campaign=yelp_api_v3&utm_medium=api_v3_business_search&utm_source=Ac1Jga9ln_zF96nUd9t7WA", "transactions": [], "coordinates": {"latitude": 37.38378, "longitude": -121.91403}, "phone": "+14086377522", "image_url": "https://s3-media3.fl.yelpcdn.com/bphoto/qiDETYyvWy-j1p1-WoLZZw/o.jpg", "is_closed": false, "display_phone": "(408) 637-7522", "time_spent_minutes": 180, "id": "norcal-mastercraft-san-jose-san-jose", "categories": [{"alias": "boatrepair", "title": "Boat Repair"}, {"alias": "boatdealers", "title": "Boat Dealers"}], "location": {"city": "San Jose", "display_address": ["521 Charcot Ave", "Ste 119", "San Jose, CA 95131"], "country": "US", "address2": "Ste 119", "address3": null, "state": "CA", "address1": "521 Charcot Ave", "zip_code": "95131"}}
{"rating": 4.5, "review_count": 159, "name": "Temescal Farmers Market", "transactions": [], "url": "https://www.yelp.com/biz/temescal-farmers-market-oakland?adjust_creative=Ac1Jga9ln_zF96nUd9t7WA&utm_campaign=yelp_api_v3&utm_medium=api_v3_business_search&utm_source=Ac1Jga9ln_zF96nUd9t7WA", "price": "$$", "location": {"city": "Oakland", "display_address": ["5300 Claremont Ave", "DMV Parking Lot", "Oakland, CA 94609"], "country": "US", "address2": "", "address3": "DMV Parking Lot", "state": "CA", "address1": "5300 Claremont Ave", "zip_code": "94609"}, "coordinates": {"latitude": 37.8397, "longitude": -122.25956}, "phone": "", "image_url": "https://s3-media4.fl.yelpcdn.com/bphoto/fPqcC46FMLsiYYa4rTGtsw/o.jpg", "is_closed": false, "display_phone": "", "time_spent_minutes": 180, "id": "temescal-farmers-market-oakland", "categories": [{"alias": "farmersmarket", "title": "Farmers Market"}]}
{"rating": 4.5, "review_count": 13, "name": "Pillar Point Bluff", "url": "https://www.yelp.com/biz/pillar-point-bluff-moss-beach?adjust_creative=Ac1Jga9ln_zF96nUd9t7WA&utm_campaign=yelp_api_v3&utm_medium=api_v3_business_search&utm_source=Ac1Jga9ln_zF96nUd9t7WA", "transactions": [], "coordinates": {"latitude": 37.501943892195, "longitude": -122.497068242206}, "phone": "+16507283584", "image_url": "https://s3-media3.fl.yelpcdn.com/bphoto/e2nMF3pQ85qQu_0bhMey5Q/o.jpg", "is_closed": false, "display_phone": "(650) 728-3584", "time_spent_minutes": 180, "id": "pillar-point-bluff-moss-beach", "categories": [{"alias": "beaches", "title": "Beaches"}], "location": {"city": "Moss Beach", "display_address": ["West Point Ave", "Moss Beach, CA 94038"], "country": "US", "address2": "", "address3": "", "state": "CA", "address1": "West Point Ave", "zip_code": "94038"}}
{"rating": 5.0, "review_count": 13, "name": "Carmel Bay Divers", "transactions": [], "url": "https://www.yelp.com/biz/carmel-bay-divers-san-jose?adjust_creative=Ac1Jga9ln_zF96nUd9t7WA&utm_campaign=yelp_api_v3&utm_medium=api_v3_business_search&utm_source=Ac1Jga9ln_zF96nUd9t7WA", "price": "$$", "location": {"city": "San Jose", "display_address": ["5859 Winfield Blvd", "San Jose, CA 95123"], "country": "US", "address2": "", "address3": "", "state": "CA", "address1": "5859 Winfield Blvd", "zip_code": "95123"}, "coordinates": {"latitude": 37.2475818, "longitude": -121.8674366}, "phone": "+14082272822", "image_url": "https://s3-media2.fl.yelpcdn.com/bphoto/BcfdRElgKA7NC1whzV7nnA/o.jpg", "is_closed": false, "display_phone": "(408) 227-2822", "time_spent_minutes": 180, "id": "carmel-bay-divers-san-jose", "categories": [{"alias": "outdoorgear", "title": "Outdoor Gear"}, {"alias": "scuba", "title": "Scuba Diving"}, {"alias": "freediving", "title": "Free Diving"}]}
{"rating": 5.0, "review_count": 1, "name": "Whitehouse Ridge Trail", "url": "https://www.yelp.com/biz/whitehouse-ridge-trail-pescadero?adjust_creative=Ac1Jga9ln_zF96nUd9t7WA&utm_campaign=yelp_api_v3&utm_medium=api_v3_business_search&utm_source=Ac1Jga9ln_zF96nUd9t7WA", "transactions": [], "coordinates": {"latitude": 37.25371, "longitude": -122.36588}, "phone": "", "image_url": "https://s3-media1.fl.yelpcdn.com/bphoto/Ilpj2G1MzRZvOumr9BMRWg/o.jpg", "is_closed": false, "display_phone": "", "time_spent_minutes": 180, "id": "whitehouse-ridge-trail-pescadero", "categories": [{"alias": "hiking", "title": "Hiking"}, {"alias": "parks", "title": "Parks"}], "location": {"city": "Pescadero", "display_address": ["Pescadero, CA 94060"], "country": "US", "address2": "", "address3": null, "state": "CA", "address1": "", "zip_code": "94060"}}
{"rating": 4.0, "review_count": 81, "name": "Rio Del Mar State Beach", "url": "https://www.yelp.com/biz/rio-del-mar-state-beach-aptos?adjust_creative=Ac1Jga9ln_zF96nUd9t7WA&utm_campaign=yelp_api_v3&utm_medium=api_v3_business_search&utm_source=Ac1Jga9ln_zF96nUd9t7WA", "transactions": [], "coordinates": {"latitude": 36.9690009977806, "longitude": -121.905198097229}, "phone": "+18316856500", "image_url": "https://s3-media4.fl.yelpcdn.com/bphoto/wCAN32LJ_B85_oVCI0TspA/o.jpg", "is_closed": false, "display_phone": "(831) 685-6500", "time_spent_minutes": 180, "id": "rio-del-mar-state-beach-aptos", "categories": [{"alias": "beaches", "title": "Beaches"}], "location": {"city": "Aptos", "display_address": ["Rio Del Mar", "Aptos, CA 95001"], "country": "US", "address2": "", "address3": "", "state": "CA", "address1": "Rio Del Mar", "zip_code": "95001"}}
{"rating": 5.0, "review_count": 7, "name": "Woolly Egg Ranch", "transactions": [], "url": "https://www.yelp.com/biz/woolly-egg-ranch-mill-valley?adjust_creative=Ac1Jga9ln_zF96nUd9t7WA&utm_campaign=yelp_api_v3&utm_medium=api_v3_business_search&utm_source=Ac1Jga9ln_zF96nUd9t7WA", "price": "$$", "location": {"city": "Mill Valley", "display_address": ["503 Tennessee Valley Rd", "Mill Valley, CA 94941"], "country": "US", "address2": "", "address3": "", "state": "CA", "address1": "503 Tennessee Valley Rd", "zip_code": "94941"}, "coordinates": {"latitude": 37.8731956481934, "longitude": -122.52498626709}, "phone": "+14155184891", "image_url": "https://s3-media3.fl.yelpcdn.com/bphoto/ndAdC8Pn5RB9pU0BkhO4ag/o.jpg", "is_closed": false, "display_phone": "(415) 518-4891", "time_spent_minutes": 180, "id": "woolly-egg-ranch-mill-valley", "categories": [{"alias": "farmersmarket", "title": "Farmers Market"}]}
{"rating": 5.0, "review_count": 2, "name": "Dave's Superior Yards", "url": "https://www.yelp.com/biz/daves-superior-yards-fremont-2?adjust_creative=Ac1Jga9ln_zF96nUd9t7WA&utm_campaign=yelp_api_v3&utm_medium=api_v3_business_search&utm_source=Ac1Jga9ln_zF96nUd9t7WA", "transactions": [], "coordinates": {"latitude": 37.51307, "longitude": -121.91866}, "phone": "+15104492337", "image_url": "https://s3-media3.fl.yelpcdn.com/bphoto/pw82wsAhhCMKqm0cLiFaow/o.jpg", "is_closed": false, "display_phone": "(510) 449-2337", "time_spent_minutes": 180, "id": "daves-superior-yards-fremont-2", "categories": [{"alias": "gardeners", "title": "Gardeners"}, {"alias": "landscaping", "title": "Landscaping"}], "location": {"city": "Fremont", "display_address": ["44705 Lynx Dr", "Fremont, CA 94539"], "country": "US", "address2": null, "address3": "", "state": "CA", "address1": "44705 Lynx Dr", "zip_code": "94539"}}
{"rating": 4.5, "review_count": 65, "name": "Tara Firma Farms", "transactions": [], "url": "https://www.yelp.com/biz/tara-firma-farms-petaluma?adjust_creative=Ac1Jga9ln_zF96nUd9t7WA&utm_campaign=yelp_api_v3&utm_medium=api_v3_business_search&utm_source=Ac1Jga9ln_zF96nUd9t7WA", "price": "$$", "location": {"city": "Petaluma", "display_address": ["3796 I St", "Petaluma, CA 94952"], "country": "US", "address2": "", "address3": "", "state": "CA", "address1": "3796 I St", "zip_code": "94952"}, "coordinates": {"latitude": 38.19326, "longitude": -122.63296}, "phone": "+17077651202", "image_url": "https://s3-media1.fl.yelpcdn.com/bphoto/o39DqCT00feXxg3JhAGehQ/o.jpg", "is_closed": false, "display_phone": "(707) 765-1202", "time_spent_minutes": 180, "id": "tara-firma-farms-petaluma", "categories": [{"alias": "csa", "title": "CSA"}]}
{"rating": 4.0, "review_count": 116, "name": "Pezzini Farms", "transactions": [], "url": "https://www.yelp.com/biz/pezzini-farms-castroville?adjust_creative=Ac1Jga9ln_zF96nUd9t7WA&utm_campaign=yelp_api_v3&utm_medium=api_v3_business_search&utm_source=Ac1Jga9ln_zF96nUd9t7WA", "price": "$", "location": {"city": "Castroville", "display_address": ["460 Nashua Rd", "Castroville, CA 95012"], "country": "US", "address2": null, "address3": "", "state": "CA", "address1": "460 Nashua Rd", "zip_code": "95012"}, "coordinates": {"latitude": 36.7431634284714, "longitude": -121.768907014686}, "phone": "+18317577434", "image_url": "https://s3-media4.fl.yelpcdn.com/bphoto/l_zDWJkm9Tbm5OTYb_rj-Q/o.jpg", "is_closed": false, "display_phone": "(831) 757-7434", "time_spent_minutes": 180, "id": "pezzini-farms-castroville", "categories": [{"alias": "markets", "title": "Fruits & Veggies"}, {"alias": "grocery", "title": "Grocery"}, {"alias": "burgers", "title": "Burgers"}]}
{"rating": 4.0, "review_count": 67, "name": "Montclair Village Farmers Market", "transactions": [], "url": "https://www.yelp.com/biz/montclair-village-farmers-market-oakland?adjust_creative=Ac1Jga9ln_zF96nUd9t7WA&utm_campaign=yelp_api_v3&utm_medium=api_v3_business_search&utm_source=Ac1Jga9ln_zF96nUd9t7WA", "price": "$$", "location": {"city": "Oakland", "display_address": ["La Salle Ave At Moraga Ave", "Oakland, CA 94620"], "country": "US", "address2": "", "address3": "", "state": "CA", "address1": "La Salle Ave At Moraga Ave", "zip_code": "94620"}, "coordinates": {"latitude": 37.8262, "longitude": -122.21056}, "phone": "", "image_url": "https://s3-media1.fl.yelpcdn.com/bphoto/zbIy-1VwNE17EnJJ77nD1A/o.jpg", "is_closed": false, "display_phone": "", "time_spent_minutes": 180, "id": "montclair-village-farmers-market-oakland", "categories": [{"alias": "farmersmarket", "title": "Farmers Market"}]}
{"rating": 4.5, "review_count": 49, "name": "Beresford Park", "url": "https://www.yelp.com/biz/beresford-park-san-mateo?adjust_creative=Ac1Jga9ln_zF96nUd9t7WA&utm_campaign=yelp_api_v3&utm_medium=api_v3_business_search&utm_source=Ac1Jga9ln_zF96nUd9t7WA", "transactions": [], "coordinates": {"latitude": 37.53805, "longitude": -122.31456}, "phone": "+16505227440", "image_url": "https://s3-media1.fl.yelpcdn.com/bphoto/HtLwENGJeIropIwFsTd9dw/o.jpg", "is_closed": false, "display_phone": "(650) 522-7440", "time_spent_minutes": 180, "id": "beresford-park-san-mateo", "categories": [{"alias": "parks", "title": "Parks"}], "location": {"city": "San Mateo", "display_address": ["2720 Alameda De Las Pulgas", "San Mateo, CA 94403"], "country": "US", "address2": "", "address3": "", "state": "CA", "address1": "2720 Alameda De Las Pulgas", "zip_code": "94403"}}
{"rating": 3.5, "review_count": 3, "name": "Half Moon Bay Lavender", "transactions": [], "url": "https://www.yelp.com/biz/half-moon-bay-lavender-half-moon-bay-6?adjust_creative=Ac1Jga9ln_zF96nUd9t7WA&utm_campaign=yelp_api_v3&utm_medium=api_v3_business_search&utm_source=Ac1Jga9ln_zF96nUd9t7WA", "price": "$$", "location": {"city": "Half Moon Bay", "display_address": ["12511 San Mateo Rd", "Half Moon Bay, CA 94019"], "country": "US", "address2": "", "address3": null, "state": "CA", "address1": "12511 San Mateo Rd", "zip_code": "94019"}, "coordinates": {"latitude": 37.4783115127879, "longitude": -122.411215649174}, "phone": "+16507046400", "image_url": "https://s3-media1.fl.yelpcdn.com/bphoto/iHyV56YqQF2PC8KZYvgqUQ/o.jpg", "is_closed": false, "display_phone": "(650) 704-6400", "time_spent_minutes": 180, "id": "half-moon-bay-lavender-half-moon-bay-6", "categories": [{"alias": "gardening", "title": "Nurseries & Gardening"}]}
{"rating": 4.0, "review_count": 11, "name": "De Leon Gardening Services", "url": "https://www.yelp.com/biz/de-leon-gardening-services-half-moon-bay?adjust_creative=Ac1Jga9ln_zF96nUd9t7WA&utm_campaign=yelp_api_v3&utm_medium=api_v3_business_search&utm_source=Ac1Jga9ln_zF96nUd9t7WA", "transactions": [], "coordinates": {"latitude": 37.46311, "longitude": -122.4293}, "phone": "+16503157448", "image_url": "https://s3-media3.fl.yelpcdn.com/bphoto/nV2_n_s4iEIFub31zXdzaw/o.jpg", "is_closed": false, "display_phone": "(650) 315-7448", "time_spent_minutes": 180, "id": "de-leon-gardening-services-half-moon-bay", "categories": [{"alias": "gardeners", "title": "Gardeners"}, {"alias": "landscaping", "title": "Landscaping"}], "location": {"city": "Half Moon Bay", "display_address": ["Half Moon Bay, CA 94019"], "country": "US", "address2": "", "address3": "", "state": "CA", "address1": "", "zip_code": "94019"}}
{"rating": 4.0, "review_count": 3, "name": "Ouroboros Aquaponic Farms", "transactions": [], "url": "https://www.yelp.com/biz/ouroboros-aquaponic-farms-half-moon-bay?adjust_creative=Ac1Jga9ln_zF96nUd9t7WA&utm_campaign=yelp_api_v3&utm_medium=api_v3_business_search&utm_source=Ac1Jga9ln_zF96nUd9t7WA", "price": "$", "location": {"city": "Half Moon Bay", "display_address": ["12511 San Mateo Rd", "Half Moon Bay, CA 94019"], "country": "US", "address2": null, "address3": "", "state": "CA", "address1": "12511 San Mateo Rd", "zip_code": "94019"}, "coordinates": {"latitude": 37.477692, "longitude": -122.411385}, "phone": "+16505166876", "image_url": "https://s3-media3.fl.yelpcdn.com/bphoto/6fyit5J6ApcSs5NoKyOeCQ/o.jpg", "is_closed": false, "display_phone": "(650) 516-6876", "time_spent_minutes": 180, "id": "ouroboros-aquaponic-farms-half-moon-bay", "categories": [{"alias": "csa", "title": "CSA"}]}
{"rating": 4.5, "review_count": 77, "name": "Shakespeare Garden", "url": "https://www.yelp.com/biz/shakespeare-garden-san-francisco?adjust_creative=Ac1Jga9ln_zF96nUd9t7WA&utm_campaign=yelp_api_v3&utm_medium=api_v3_business_search&utm_source=Ac1Jga9ln_zF96nUd9t7WA", "transactions": [], "coordinates": {"latitude": 37.7682043780422, "longitude": -122.466959953308}, "phone": "+14158315500", "image_url": "https://s3-media4.fl.yelpcdn.com/bphoto/KPuyO6cfZLZiEM29NwEpfg/o.jpg", "is_closed": false, "display_phone": "(415) 831-5500", "time_spent_minutes": 180, "id": "shakespeare-garden-san-francisco", "categories": [{"alias": "parks", "title": "Parks"}], "location": {"city": "San Francisco", "display_address": ["Golden Gate Park", "San Francisco, CA 94121"], "country": "US", "address2": "", "address3": "", "state": "CA", "address1": "Golden Gate Park", "zip_code": "94121"}}
{"rating": 5.0, "review_count": 83, "name": "Santa Cruz Whale Watching", "url": "https://www.yelp.com/biz/santa-cruz-whale-watching-santa-cruz-2?adjust_creative=Ac1Jga9ln_zF96nUd9t7WA&utm_campaign=yelp_api_v3&utm_medium=api_v3_business_search&utm_source=Ac1Jga9ln_zF96nUd9t7WA", "transactions": [], "coordinates": {"latitude": 36.9707574, "longitude": -121.984114538623}, "phone": "+18314270230", "image_url": "https://s3-media1.fl.yelpcdn.com/bphoto/nGENRrUqCb6R7WzeoU2vlg/o.jpg", "is_closed": false, "display_phone": "(831) 427-0230", "time_spent_minutes": 180, "id": "santa-cruz-whale-watching-santa-cruz-2", "categories": [{"alias": "whalewatchingtours", "title": "Whale Watching Tours"}], "location": {"city": "Santa Cruz", "display_address": ["1718 Brommer St", "Santa Cruz, CA 95062"], "country": "US", "address2": "", "address3": "", "state": "CA", "address1": "1718 Brommer St", "zip_code": "95062"}}
{"rating": 5.0, "review_count": 1, "name": "Farnsworth Regional Trail - Access", "url": "https://www.yelp.com/biz/farnsworth-regional-trail-access-san-jose?adjust_creative=Ac1Jga9ln_zF96nUd9t7WA&utm_campaign=yelp_api_v3&utm_medium=api_v3_business_search&utm_source=Ac1Jga9ln_zF96nUd9t7WA", "transactions": [], "coordinates": {"latitude": 37.2821140601367, "longitude": -121.763725434782}, "phone": "", "image_url": "https://s3-media3.fl.yelpcdn.com/bphoto/Wi9GqWBEpWuzFwFME6k_cA/o.jpg", "is_closed": false, "display_phone": "", "time_spent_minutes": 180, "id": "farnsworth-regional-trail-access-san-jose", "categories": [{"alias": "hiking", "title": "Hiking"}], "location": {"city": "San Jose", "display_address": ["5008-5092 Farnsworth Dr", "San Jose, CA 95138"], "country": "US", "address2": "", "address3": "", "state": "CA", "address1": "5008-5092 Farnsworth Dr", "zip_code": "95138"}}
{"rating": 5.0, "review_count": 2, "name": "Bevy Produce", "url": "https://www.yelp.com/biz/bevy-produce-san-jose?adjust_creative=Ac1Jga9ln_zF96nUd9t7WA&utm_campaign=yelp_api_v3&utm_medium=api_v3_business_search&utm_source=Ac1Jga9ln_zF96nUd9t7WA", "transactions": [], "coordinates": {"latitude": 37.2102678880938, "longitude": -121.84547636658}, "phone": "+14084402490", "image_url": "https://s3-media1.fl.yelpcdn.com/bphoto/0Q_Pe1sPL4xI1DjMi1e-TA/o.jpg", "is_closed": false, "display_phone": "(408) 440-2490", "time_spent_minutes": 180, "id": "bevy-produce-san-jose", "categories": [{"alias": "organic_stores", "title": "Organic Stores"}, {"alias": "markets", "title": "Fruits & Veggies"}], "location": {"city": "San Jose", "display_address": ["6946 Almaden Expy", "San Jose, CA 95120"], "country": "US", "address2": "", "address3": null, "state": "CA", "address1": "6946 Almaden Expy", "zip_code": "95120"}}
{"rating": 4.0, "review_count": 312, "name": "Del Valle Regional Park", "url": "https://www.yelp.com/biz/del-valle-regional-park-livermore?adjust_creative=Ac1Jga9ln_zF96nUd9t7WA&utm_campaign=yelp_api_v3&utm_medium=api_v3_business_search&utm_source=Ac1Jga9ln_zF96nUd9t7WA", "transactions": [], "coordinates": {"latitude": 37.5844333844595, "longitude": -121.688661009194}, "phone": "+18883272757", "image_url": "https://s3-media1.fl.yelpcdn.com/bphoto/0rkvQHQk7CDJ6Z-v15_aCQ/o.jpg", "is_closed": false, "display_phone": "(888) 327-2757", "time_spent_minutes": 180, "id": "del-valle-regional-park-livermore", "categories": [{"alias": "parks", "title": "Parks"}, {"alias": "campgrounds", "title": "Campgrounds"}, {"alias": "fishing", "title": "Fishing"}], "location": {"city": "Livermore", "display_address": ["7000 Del Valle Rd", "Livermore, CA 94550"], "country": "US", "address2": "", "address3": "", "state": "CA", "address1": "7000 Del Valle Rd", "zip_code": "94550"}}
{"rating": 4.0, "review_count": 13, "name": "Hosanna Boys Ranch", "url": "https://www.yelp.com/biz/hosanna-boys-ranch-castro-valley?adjust_creative=Ac1Jga9ln_zF96nUd9t7WA&utm_campaign=yelp_api_v3&utm_medium=api_v3_business_search&utm_source=Ac1Jga9ln_zF96nUd9t7WA", "transactions": [], "coordinates": {"latitude": 37.75038, "longitude": -122.03262}, "phone": "+15105388117", "image_url": "https://s3-media1.fl.yelpcdn.com/bphoto/QasgxPluGTfgDxchP_RUyw/o.jpg", "is_closed": false, "display_phone": "(510) 538-8117", "time_spent_minutes": 180, "id": "hosanna-boys-ranch-castro-valley", "categories": [{"alias": "ranches", "title": "Ranches"}], "location": {"city": "Castro Valley", "display_address": ["9998 Crow Canyon Rd", "Castro Valley, CA 94552"], "country": "US", "address2": "", "address3": "", "state": "CA", "address1": "9998 Crow Canyon Rd", "zip_code": "94552"}}
{"rating": 5.0, "review_count": 74, "name": "Matt Davis-Steep Ravine Loop", "url": "https://www.yelp.com/biz/matt-davis-steep-ravine-loop-stinson-beach?adjust_creative=Ac1Jga9ln_zF96nUd9t7WA&utm_campaign=yelp_api_v3&utm_medium=api_v3_business_search&utm_source=Ac1Jga9ln_zF96nUd9t7WA", "transactions": [], "coordinates": {"latitude": 37.89849, "longitude": -122.63879}, "phone": "", "image_url": "https://s3-media4.fl.yelpcdn.com/bphoto/Z11v7momi2ju1ke71bVoIw/o.jpg", "is_closed": false, "display_phone": "", "time_spent_minutes": 180, "id": "matt-davis-steep-ravine-loop-stinson-beach", "categories": [{"alias": "hiking", "title": "Hiking"}], "location": {"city": "Stinson Beach", "display_address": ["Stinson Beach Trailhead", "Mt. Tamalpais State Park", "Stinson Beach, CA 94970"], "country": "US", "address2": "", "address3": "Mt. Tamalpais State Park", "state": "CA", "address1": "Stinson Beach Trailhead", "zip_code": "94970"}}
{"rating": 4.5, "review_count": 37, "name": "Inspiration Point at the Presidio", "url": "https://www.yelp.com/biz/inspiration-point-at-the-presidio-san-francisco?adjust_creative=Ac1Jga9ln_zF96nUd9t7WA&utm_campaign=yelp_api_v3&utm_medium=api_v3_business_search&utm_source=Ac1Jga9ln_zF96nUd9t7WA", "transactions": [], "coordinates": {"latitude": 37.7920368311658, "longitude": -122.45880446539}, "phone": "+14155615300", "image_url": "https://s3-media3.fl.yelpcdn.com/bphoto/fWAahH3T4IRv8vLMSREUaA/o.jpg", "is_closed": false, "display_phone": "(415) 561-5300", "time_spent_minutes": 180, "id": "inspiration-point-at-the-presidio-san-francisco", "categories": [{"alias": "hiking", "title": "Hiking"}], "location": {"city": "San Francisco", "display_address": ["Arguello Blvd and Washington Blvd", "San Francisco, CA 94129"], "country": "US", "address2": "Arguello Blvd and Washington Blvd", "address3": "", "state": "CA", "address1": "", "zip_code": "94129"}}
{"rating": 5.0, "review_count": 3, "name": "Sea-lutt Sailing", "url": "https://www.yelp.com/biz/sea-lutt-sailing-san-francisco?adjust_creative=Ac1Jga9ln_zF96nUd9t7WA&utm_campaign=yelp_api_v3&utm_medium=api_v3_business_search&utm_source=Ac1Jga9ln_zF96nUd9t7WA", "transactions": [], "coordinates": {"latitude": 37.79802, "longitude": -122.39865}, "phone": "+14156694067", "image_url": "https://s3-media2.fl.yelpcdn.com/bphoto/Svwq6mY3s2b8gmFbKzw1XQ/o.jpg", "is_closed": false, "display_phone": "(415) 669-4067", "time_spent_minutes": 180, "id": "sea-lutt-sailing-san-francisco", "categories": [{"alias": "boating", "title": "Boating"}], "location": {"city": "San Francisco", "display_address": ["San Francisco, CA 94111"], "country": "US", "address2": "", "address3": "", "state": "CA", "address1": "", "zip_code": "94111"}}
{"rating": 4.5, "review_count": 280, "name": "Vasona Park", "url": "https://www.yelp.com/biz/vasona-park-los-gatos?adjust_creative=Ac1Jga9ln_zF96nUd9t7WA&utm_campaign=yelp_api_v3&utm_medium=api_v3_business_search&utm_source=Ac1Jga9ln_zF96nUd9t7WA", "transactions": [], "coordinates": {"latitude": 37.2409461151878, "longitude": -121.968842558563}, "phone": "+14083562729", "image_url": "https://s3-media1.fl.yelpcdn.com/bphoto/OuWMpsR3ewASjqxdXiXhiQ/o.jpg", "is_closed": false, "display_phone": "(408) 356-2729", "time_spent_minutes": 180, "id": "vasona-park-los-gatos", "categories": [{"alias": "parks", "title": "Parks"}, {"alias": "boating", "title": "Boating"}, {"alias": "lakes", "title": "Lakes"}], "location": {"city": "Los Gatos", "display_address": ["333 Blossom Hill Rd", "Los Gatos, CA 95032"], "country": "US", "address2": null, "address3": "", "state": "CA", "address1": "333 Blossom Hill Rd", "zip_code": "95032"}}
{"rating": 3.5, "review_count": 3, "name": "NDILI Recreational", "url": "https://www.yelp.com/biz/ndili-recreational-san-jose?adjust_creative=Ac1Jga9ln_zF96nUd9t7WA&utm_campaign=yelp_api_v3&utm_medium=api_v3_business_search&utm_source=Ac1Jga9ln_zF96nUd9t7WA", "transactions": [], "coordinates": {"latitude": 37.3009033, "longitude": -121.8576818}, "phone": "+14086248480", "image_url": "", "is_closed": false, "display_phone": "(408) 624-8480", "time_spent_minutes": 180, "id": "ndili-recreational-san-jose", "categories": [{"alias": "rvrental", "title": "RV Rental"}, {"alias": "specialtyschools", "title": "Specialty Schools"}, {"alias": "boatcharters", "title": "Boat Charters"}], "location": {"city": "San Jose", "display_address": ["2400 Healey Ave", "San Jose, CA 95111"], "country": "US", "address2": "", "address3": null, "state": "CA", "address1": "2400 Healey Ave", "zip_code": "95111"}}
{"rating": 3.0, "review_count": 7, "name": "Secret Sidewalk", "url": "https://www.yelp.com/biz/secret-sidewalk-fremont?adjust_creative=Ac1Jga9ln_zF96nUd9t7WA&utm_campaign=yelp_api_v3&utm_medium=api_v3_business_search&utm_source=Ac1Jga9ln_zF96nUd9t7WA", "transactions": [], "coordinates": {"latitude": 37.5911950529669, "longitude": -121.950974445472}, "phone": "", "image_url": "https://s3-media2.fl.yelpcdn.com/bphoto/C35rMcqlJG60C_tVbZtjmw/o.jpg", "is_closed": false, "display_phone": "", "time_spent_minutes": 180, "id": "secret-sidewalk-fremont", "categories": [{"alias": "hiking", "title": "Hiking"}], "location": {"city": "Fremont", "display_address": ["2450 Niles Canyon Rd", "Fremont, CA 94536"], "country": "US", "address2": "", "address3": "", "state": "CA", "address1": "2450 Niles Canyon Rd", "zip_code": "94536"}}
{"rating": 5.0, "review_count": 4, "name": "Believe Gardening", "url": "https://www.yelp.com/biz/believe-gardening-san-jose?adjust_creative=Ac1Jga9ln_zF96nUd9t7WA&utm_campaign=yelp_api_v3&utm_medium=api_v3_business_search&utm_source=Ac1Jga9ln_zF96nUd9t7WA", "transactions": [], "coordinates": {"latitude": 37.2830429077148, "longitude": -121.710144042969}, "phone": "+14084399706", "image_url": "https://s3-media3.fl.yelpcdn.com/bphoto/Pr70wvSfMzO2EOQ1lujPjg/o.jpg", "is_closed": false, "display_phone": "(408) 439-9706", "time_spent_minutes": 180, "id": "believe-gardening-san-jose", "categories": [{"alias": "gardeners", "title": "Gardeners"}, {"alias": "irrigation", "title": "Irrigation"}], "location": {"city": "San Jose", "display_address": ["San Jose, CA 95135"], "country": "US", "address2": "", "address3": "", "state": "CA", "address1": "", "zip_code": "95135"}}
{"rating": 4.5, "review_count": 87, "name": "Mount Sutro", "url": "https://www.yelp.com/biz/mount-sutro-san-francisco?adjust_creative=Ac1Jga9ln_zF96nUd9t7WA&utm_campaign=yelp_api_v3&utm_medium=api_v3_business_search&utm_source=Ac1Jga9ln_zF96nUd9t7WA", "transactions": [], "coordinates": {"latitude": 37.7605343156777, "longitude": -122.457743354492}, "phone": "", "image_url": "https://s3-media1.fl.yelpcdn.com/bphoto/5W_bu09OcU4bTFL_0uwDsw/o.jpg", "is_closed": false, "display_phone": "", "time_spent_minutes": 180, "id": "mount-sutro-san-francisco", "categories": [{"alias": "parks", "title": "Parks"}, {"alias": "hiking", "title": "Hiking"}], "location": {"city": "San Francisco", "display_address": ["Medical Ctr Way", "San Francisco, CA 94143"], "country": "US", "address2": null, "address3": "", "state": "CA", "address1": "Medical Ctr Way", "zip_code": "94143"}}
{"rating": 4.0, "review_count": 21, "name": "Dunes Beach", "url": "https://www.yelp.com/biz/dunes-beach-half-moon-bay?adjust_creative=Ac1Jga9ln_zF96nUd9t7WA&utm_campaign=yelp_api_v3&utm_medium=api_v3_business_search&utm_source=Ac1Jga9ln_zF96nUd9t7WA", "transactions": [], "coordinates": {"latitude": 37.48558, "longitude": -122.45174}, "phone": "", "image_url": "https://s3-media4.fl.yelpcdn.com/bphoto/IhPyepiQ54JoeUELCmCwpQ/o.jpg", "is_closed": false, "display_phone": "", "time_spent_minutes": 180, "id": "dunes-beach-half-moon-bay", "categories": [{"alias": "beaches", "title": "Beaches"}], "location": {"city": "Half Moon Bay", "display_address": ["Young Ave", "Half Moon Bay, CA 94019"], "country": "US", "address2": "", "address3": "", "state": "CA", "address1": "Young Ave", "zip_code": "94019"}}
{"rating": 3.0, "review_count": 177, "name": "Mar Vista Stable", "url": "https://www.yelp.com/biz/mar-vista-stable-daly-city?adjust_creative=Ac1Jga9ln_zF96nUd9t7WA&utm_campaign=yelp_api_v3&utm_medium=api_v3_business_search&utm_source=Ac1Jga9ln_zF96nUd9t7WA", "transactions": [], "coordinates": {"latitude": 37.7001428, "longitude": -122.4962892}, "phone": "+16509914224", "image_url": "https://s3-media4.fl.yelpcdn.com/bphoto/EO2xVlogde95TEyqhozHlQ/o.jpg", "is_closed": false, "display_phone": "(650) 991-4224", "time_spent_minutes": 180, "id": "mar-vista-stable-daly-city", "categories": [{"alias": "horsebackriding", "title": "Horseback Riding"}, {"alias": "horse_boarding", "title": "Horse Boarding"}], "location": {"city": "Daly City", "display_address": ["2152 Skyline Blvd", "Daly City, CA 94015"], "country": "US", "address2": "", "address3": "", "state": "CA", "address1": "2152 Skyline Blvd", "zip_code": "94015"}}
{"rating": 5.0, "review_count": 1, "name": "OneHandyMan", "url": "https://www.yelp.com/biz/onehandyman-san-bruno-5?adjust_creative=Ac1Jga9ln_zF96nUd9t7WA&utm_campaign=yelp_api_v3&utm_medium=api_v3_business_search&utm_source=Ac1Jga9ln_zF96nUd9t7WA", "transactions": [], "coordinates": {"latitude": 37.6228996039939, "longitude": -122.412629127502}, "phone": "+15053999369", "image_url": "https://s3-media1.fl.yelpcdn.com/bphoto/Omf5hPigvpIZi0xgFx5lZQ/o.jpg", "is_closed": false, "display_phone": "(505) 399-9369", "time_spent_minutes": 180, "id": "onehandyman-san-bruno-5", "categories": [{"alias": "handyman", "title": "Handyman"}, {"alias": "gardeners", "title": "Gardeners"}, {"alias": "landscaping", "title": "Landscaping"}], "location": {"city": "San Bruno", "display_address": ["San Bruno, CA 94066"], "country": "US", "address2": null, "address3": "", "state": "CA", "address1": null, "zip_code": "94066"}}
{"rating": 3.5, "review_count": 10, "name": "Coyote Point Yacht Club", "url": "https://www.yelp.com/biz/coyote-point-yacht-club-san-mateo?adjust_creative=Ac1Jga9ln_zF96nUd9t7WA&utm_campaign=yelp_api_v3&utm_medium=api_v3_business_search&utm_source=Ac1Jga9ln_zF96nUd9t7WA", "transactions": [], "coordinates": {"latitude": 37.5872667878866, "longitude": -122.325467392802}, "phone": "+16503476730", "image_url": "https://s3-media1.fl.yelpcdn.com/bphoto/lOxyUHxzMjZbLoyHueQwYw/o.jpg", "is_closed": false, "display_phone": "(650) 347-6730", "time_spent_minutes": 180, "id": "coyote-point-yacht-club-san-mateo", "categories": [{"alias": "boating", "title": "Boating"}], "location": {"city": "San Mateo", "display_address": ["1820 Coyote Point Dr", "San Mateo, CA 94401"], "country": "US", "address2": "", "address3": "", "state": "CA", "address1": "1820 Coyote Point Dr", "zip_code": "94401"}}
{"rating": 4.0, "review_count": 36, "name": "Mussel Rock Beach Park", "url": "https://www.yelp.com/biz/mussel-rock-beach-park-daly-city?adjust_creative=Ac1Jga9ln_zF96nUd9t7WA&utm_campaign=yelp_api_v3&utm_medium=api_v3_business_search&utm_source=Ac1Jga9ln_zF96nUd9t7WA", "transactions": [], "coordinates": {"latitude": 37.6632564449966, "longitude": -122.492494500326}, "phone": "", "image_url": "https://s3-media3.fl.yelpcdn.com/bphoto/pKRF257F8T4dAZ2twMZi6w/o.jpg", "is_closed": false, "display_phone": "", "time_spent_minutes": 180, "id": "mussel-rock-beach-park-daly-city", "categories": [{"alias": "beaches", "title": "Beaches"}], "location": {"city": "Daly City", "display_address": ["Skyline Dr & Westline Dr", "Daly City, CA 94015"], "country": "US", "address2": "", "address3": "", "state": "CA", "address1": "Skyline Dr & Westline Dr", "zip_code": "94015"}}
{"rating": 4.5, "review_count": 19, "name": "Belmont Boat Services", "url": "https://www.yelp.com/biz/belmont-boat-service-san-carlos?adjust_creative=Ac1Jga9ln_zF96nUd9t7WA&utm_campaign=yelp_api_v3&utm_medium=api_v3_business_search&utm_source=Ac1Jga9ln_zF96nUd9t7WA", "transactions": [], "coordinates": {"latitude": 37.5168856, "longitude": -122.2693694}, "phone": "+16505958104", "image_url": "https://s3-media3.fl.yelpcdn.com/bphoto/QZ1WL7mYyHJFt9fNS_E93w/o.jpg", "is_closed": false, "display_phone": "(650) 595-8104", "time_spent_minutes": 180, "id": "belmont-boat-service-san-carlos", "categories": [{"alias": "boatrepair", "title": "Boat Repair"}], "location": {"city": "San Carlos", "display_address": ["151 Old County Rd", "Ste K", "San Carlos, CA 94070"], "country": "US", "address2": "Ste K", "address3": "", "state": "CA", "address1": "151 Old County Rd", "zip_code": "94070"}}
{"rating": 4.0, "review_count": 770, "name": "Ocean Beach", "url": "https://www.yelp.com/biz/ocean-beach-san-francisco?adjust_creative=Ac1Jga9ln_zF96nUd9t7WA&utm_campaign=yelp_api_v3&utm_medium=api_v3_business_search&utm_source=Ac1Jga9ln_zF96nUd9t7WA", "transactions": [], "coordinates": {"latitude": 37.7702848665, "longitude": -122.510990426}, "phone": "+14154265240", "image_url": "https://s3-media3.fl.yelpcdn.com/bphoto/oK5XIFpMQSWRMFxOlXKxNw/o.jpg", "is_closed": false, "display_phone": "(415) 426-5240", "time_spent_minutes": 180, "id": "ocean-beach-san-francisco", "categories": [{"alias": "parks", "title": "Parks"}, {"alias": "beaches", "title": "Beaches"}, {"alias": "surfing", "title": "Surfing"}], "location": {"city": "San Francisco", "display_address": ["Great Hwy", "San Francisco, CA 94121"], "country": "US", "address2": "", "address3": "", "state": "CA", "address1": "Great Hwy", "zip_code": "94121"}}
{"rating": 4.5, "review_count": 42, "name": "Inside Out", "url": "https://www.yelp.com/biz/inside-out-south-san-francisco?adjust_creative=Ac1Jga9ln_zF96nUd9t7WA&utm_campaign=yelp_api_v3&utm_medium=api_v3_business_search&utm_source=Ac1Jga9ln_zF96nUd9t7WA", "transactions": [], "coordinates": {"latitude": 37.6358166, "longitude": -122.4058213}, "phone": "+14156067122", "image_url": "https://s3-media2.fl.yelpcdn.com/bphoto/zzfb3maZU7UqWS_GY7R11Q/o.jpg", "is_closed": false, "display_phone": "(415) 606-7122", "time_spent_minutes": 180, "id": "inside-out-south-san-francisco", "categories": [{"alias": "landscaping", "title": "Landscaping"}, {"alias": "gardeners", "title": "Gardeners"}, {"alias": "landscapearchitects", "title": "Landscape Architects"}], "location": {"city": "South San Francisco", "display_address": ["373 Shaw Rd", "South San Francisco, CA 94080"], "country": "US", "address2": "", "address3": "", "state": "CA", "address1": "373 Shaw Rd", "zip_code": "94080"}}
{"rating": 4.5, "review_count": 4, "name": "Pacifica's Secret Waterfall", "url": "https://www.yelp.com/biz/pacificas-secret-waterfall-daly-city?adjust_creative=Ac1Jga9ln_zF96nUd9t7WA&utm_campaign=yelp_api_v3&utm_medium=api_v3_business_search&utm_source=Ac1Jga9ln_zF96nUd9t7WA", "transactions": [], "coordinates": {"latitude": 37.6631188234334, "longitude": -122.49273698777}, "phone": "", "image_url": "https://s3-media3.fl.yelpcdn.com/bphoto/cDjBdRlyW9ZPMmw1SV7S1Q/o.jpg", "is_closed": false, "display_phone": "", "time_spent_minutes": 180, "id": "pacificas-secret-waterfall-daly-city", "categories": [{"alias": "beaches", "title": "Beaches"}], "location": {"city": "Daly City", "display_address": ["Daly City, CA 94015"], "country": "US", "address2": "", "address3": "", "state": "CA", "address1": "", "zip_code": "94015"}}
{"rating": 4.5, "review_count": 1256, "name": "Muir Woods National Monument", "url": "https://www.yelp.com/biz/muir-woods-national-monument-mill-valley?adjust_creative=Ac1Jga9ln_zF96nUd9t7WA&utm_campaign=yelp_api_v3&utm_medium=api_v3_business_search&utm_source=Ac1Jga9ln_zF96nUd9t7WA", "transactions": [], "coordinates": {"latitude": 37.89538, "longitude": -122.578095}, "phone": "+14155612850", "image_url": "https://s3-media3.fl.yelpcdn.com/bphoto/zjIV1Kpm2u5DDHzRgkDbUw/o.jpg", "is_closed": false, "display_phone": "(415) 561-2850", "time_spent_minutes": 180, "id": "muir-woods-national-monument-mill-valley", "categories": [{"alias": "parks", "title": "Parks"}, {"alias": "hiking", "title": "Hiking"}], "location": {"city": "Mill Valley", "display_address": ["1 Muir Woods Rd", "Mill Valley, CA 94941"], "country": "US", "address2": null, "address3": "", "state": "CA", "address1": "1 Muir Woods Rd", "zip_code": "94941"}}
{"rating": 5.0, "review_count": 118, "name": "Mountain Feed & Farm Supply", "transactions": [], "url": "https://www.yelp.com/biz/mountain-feed-and-farm-supply-ben-lomond?adjust_creative=Ac1Jga9ln_zF96nUd9t7WA&utm_campaign=yelp_api_v3&utm_medium=api_v3_business_search&utm_source=Ac1Jga9ln_zF96nUd9t7WA", "price": "$$", "location": {"city": "Ben Lomond", "display_address": ["9550 Hwy 9", "Ben Lomond, CA 95005"], "country": "US", "address2": "", "address3": "", "state": "CA", "address1": "9550 Hwy 9", "zip_code": "95005"}, "coordinates": {"latitude": 37.0898208618164, "longitude": -122.091217041016}, "phone": "+18313368876", "image_url": "https://s3-media1.fl.yelpcdn.com/bphoto/rGxABSnakjY08x61OHIyBg/o.jpg", "is_closed": false, "display_phone": "(831) 336-8876", "time_spent_minutes": 180, "id": "mountain-feed-and-farm-supply-ben-lomond", "categories": [{"alias": "gardening", "title": "Nurseries & Gardening"}]}
{"rating": 5.0, "review_count": 224, "name": "Skydive Surf City", "url": "https://www.yelp.com/biz/skydive-surf-city-watsonville-2?adjust_creative=Ac1Jga9ln_zF96nUd9t7WA&utm_campaign=yelp_api_v3&utm_medium=api_v3_business_search&utm_source=Ac1Jga9ln_zF96nUd9t7WA", "transactions": [], "coordinates": {"latitude": 36.9324449935589, "longitude": -121.789774906753}, "phone": "+18314355169", "image_url": "https://s3-media2.fl.yelpcdn.com/bphoto/HLRuhHdMEnC-DcUbz0h9iA/o.jpg", "is_closed": false, "display_phone": "(831) 435-5169", "time_spent_minutes": 180, "id": "skydive-surf-city-watsonville-2", "categories": [{"alias": "skydiving", "title": "Skydiving"}], "location": {"city": "Watsonville", "display_address": ["160 Aviation Way", "Watsonville, CA 95076"], "country": "US", "address2": "", "address3": "", "state": "CA", "address1": "160 Aviation Way", "zip_code": "95076"}}
{"rating": 4.0, "review_count": 254, "name": "Plant Warehouse", "transactions": [], "url": "https://www.yelp.com/biz/plant-warehouse-san-francisco?adjust_creative=Ac1Jga9ln_zF96nUd9t7WA&utm_campaign=yelp_api_v3&utm_medium=api_v3_business_search&utm_source=Ac1Jga9ln_zF96nUd9t7WA", "price": "$$", "location": {"city": "San Francisco", "display_address": ["1546 California St", "San Francisco, CA 94109"], "country": "US", "address2": "", "address3": "", "state": "CA", "address1": "1546 California St", "zip_code": "94109"}, "coordinates": {"latitude": 37.7907916, "longitude": -122.4199805}, "phone": "+14158851515", "image_url": "https://s3-media1.fl.yelpcdn.com/bphoto/x5WaRrfjWnrJDhXJnq5exg/o.jpg", "is_closed": false, "display_phone": "(415) 885-1515", "time_spent_minutes": 180, "id": "plant-warehouse-san-francisco", "categories": [{"alias": "gardening", "title": "Nurseries & Gardening"}]}
{"rating": 4.5, "review_count": 44, "name": "Ulistac Natural Area", "url": "https://www.yelp.com/biz/ulistac-natural-area-santa-clara?adjust_creative=Ac1Jga9ln_zF96nUd9t7WA&utm_campaign=yelp_api_v3&utm_medium=api_v3_business_search&utm_source=Ac1Jga9ln_zF96nUd9t7WA", "transactions": [], "coordinates": {"latitude": 37.4052101111271, "longitude": -121.95442199707}, "phone": "", "image_url": "https://s3-media3.fl.yelpcdn.com/bphoto/hb6jAzZIvQQPQKt-8wnXZQ/o.jpg", "is_closed": false, "display_phone": "", "time_spent_minutes": 180, "id": "ulistac-natural-area-santa-clara", "categories": [{"alias": "parks", "title": "Parks"}], "location": {"city": "Santa Clara", "display_address": ["4901 Lick Mill Blvd", "Santa Clara, CA 95052"], "country": "US", "address2": "", "address3": "", "state": "CA", "address1": "4901 Lick Mill Blvd", "zip_code": "95052"}}
{"rating": 4.5, "review_count": 36, "name": "Sycamore Valley Park", "url": "https://www.yelp.com/biz/sycamore-valley-park-danville-2?adjust_creative=Ac1Jga9ln_zF96nUd9t7WA&utm_campaign=yelp_api_v3&utm_medium=api_v3_business_search&utm_source=Ac1Jga9ln_zF96nUd9t7WA", "transactions": [], "coordinates": {"latitude": 37.8063571, "longitude": -121.9452018}, "phone": "+19253143450", "image_url": "https://s3-media2.fl.yelpcdn.com/bphoto/bGvfC9bZ12QVEnrjt8qTaw/o.jpg", "is_closed": false, "display_phone": "(925) 314-3450", "time_spent_minutes": 180, "id": "sycamore-valley-park-danville-2", "categories": [{"alias": "parks", "title": "Parks"}], "location": {"city": "Danville", "display_address": ["2101 Holbrook Dr", "Danville, CA 94506"], "country": "US", "address2": "", "address3": "", "state": "CA", "address1": "2101 Holbrook Dr", "zip_code": "94506"}}
{"rating": 5.0, "review_count": 132, "name": "Modern Sailing School & Club", "url": "https://www.yelp.com/biz/modern-sailing-school-and-club-sausalito?adjust_creative=Ac1Jga9ln_zF96nUd9t7WA&utm_campaign=yelp_api_v3&utm_medium=api_v3_business_search&utm_source=Ac1Jga9ln_zF96nUd9t7WA", "transactions": [], "coordinates": {"latitude": 37.86564, "longitude": -122.49631}, "phone": "+14153318250", "image_url": "https://s3-media3.fl.yelpcdn.com/bphoto/QTVQIKNk86TVrY3wCIfu_A/o.jpg", "is_closed": false, "display_phone": "(415) 331-8250", "time_spent_minutes": 180, "id": "modern-sailing-school-and-club-sausalito", "categories": [{"alias": "boating", "title": "Boating"}, {"alias": "boatcharters", "title": "Boat Charters"}], "location": {"city": "Sausalito", "display_address": ["2310 Marinship Way", "Sausalito, CA 94965"], "country": "US", "address2": "", "address3": "", "state": "CA", "address1": "2310 Marinship Way", "zip_code": "94965"}}
{"rating": 5.0, "review_count": 9, "name": "Oakland Athletic Rowing Society", "url": "https://www.yelp.com/biz/oakland-athletic-rowing-society-oakland?adjust_creative=Ac1Jga9ln_zF96nUd9t7WA&utm_campaign=yelp_api_v3&utm_medium=api_v3_business_search&utm_source=Ac1Jga9ln_zF96nUd9t7WA", "transactions": [], "coordinates": {"latitude": 37.7805611510454, "longitude": -122.243479008584}, "phone": "+15108530657", "image_url": "https://s3-media2.fl.yelpcdn.com/bphoto/3FzM9GRaUaxAfiPpKaEKNQ/o.jpg", "is_closed": false, "display_phone": "(510) 853-0657", "time_spent_minutes": 180, "id": "oakland-athletic-rowing-society-oakland", "categories": [{"alias": "sports_clubs", "title": "Sports Clubs"}, {"alias": "amateursportsteams", "title": "Amateur Sports Teams"}, {"alias": "boating", "title": "Boating"}], "location": {"city": "Oakland", "display_address": ["Oakland, CA 94606"], "country": "US", "address2": null, "address3": "", "state": "CA", "address1": "", "zip_code": "94606"}}
{"rating": 5.0, "review_count": 21, "name": "Artificial Grass Pros", "url": "https://www.yelp.com/biz/artificial-grass-pros-san-ramon-2?adjust_creative=Ac1Jga9ln_zF96nUd9t7WA&utm_campaign=yelp_api_v3&utm_medium=api_v3_business_search&utm_source=Ac1Jga9ln_zF96nUd9t7WA", "transactions": [], "coordinates": {"latitude": 37.781939, "longitude": -121.978428}, "phone": "+19252344349", "image_url": "https://s3-media1.fl.yelpcdn.com/bphoto/kqz7uLzNhbs4tAtjpDUbwA/o.jpg", "is_closed": false, "display_phone": "(925) 234-4349", "time_spent_minutes": 180, "id": "artificial-grass-pros-san-ramon-2", "categories": [{"alias": "artificialturf", "title": "Artificial Turf"}], "location": {"city": "San Ramon", "display_address": ["2156 San Ramon Valley Blvd", "Fl 2", "San Ramon, CA 94583"], "country": "US", "address2": "Fl 2", "address3": "", "state": "CA", "address1": "2156 San Ramon Valley Blvd", "zip_code": "94583"}}
{"rating": 5.0, "review_count": 14, "name": "Pura Vida Flowers And Plants", "transactions": [], "url": "https://www.yelp.com/biz/pura-vida-flowers-and-plants-oakland?adjust_creative=Ac1Jga9ln_zF96nUd9t7WA&utm_campaign=yelp_api_v3&utm_medium=api_v3_business_search&utm_source=Ac1Jga9ln_zF96nUd9t7WA", "price": "$$", "location": {"city": "Oakland", "display_address": ["3247 Lakeshore Ave", "Oakland, CA 94610"], "country": "US", "address2": null, "address3": "", "state": "CA", "address1": "3247 Lakeshore Ave", "zip_code": "94610"}, "coordinates": {"latitude": 37.810555, "longitude": -122.245192}, "phone": "+15107632712", "image_url": "https://s3-media4.fl.yelpcdn.com/bphoto/BvvHv8eN36Sw3ykSk8Fnhg/o.jpg", "is_closed": false, "display_phone": "(510) 763-2712", "time_spent_minutes": 180, "id": "pura-vida-flowers-and-plants-oakland", "categories": [{"alias": "florists", "title": "Florists"}, {"alias": "gardening", "title": "Nurseries & Gardening"}]}
{"rating": 3.5, "review_count": 3, "name": "Coyote Creek Trailhead", "url": "https://www.yelp.com/biz/coyote-creek-trailhead-san-jose?adjust_creative=Ac1Jga9ln_zF96nUd9t7WA&utm_campaign=yelp_api_v3&utm_medium=api_v3_business_search&utm_source=Ac1Jga9ln_zF96nUd9t7WA", "transactions": [], "coordinates": {"latitude": 37.310184982888, "longitude": -121.843861683893}, "phone": "", "image_url": "https://s3-media4.fl.yelpcdn.com/bphoto/t1WkpJD4ll3FRyFbdUkGFw/o.jpg", "is_closed": false, "display_phone": "", "time_spent_minutes": 180, "id": "coyote-creek-trailhead-san-jose", "categories": [{"alias": "hiking", "title": "Hiking"}], "location": {"city": "San Jose", "display_address": ["Tully Rd", "San Jose, CA 95122"], "country": "US", "address2": "", "address3": "", "state": "CA", "address1": "Tully Rd", "zip_code": "95122"}}
{"rating": 4.0, "review_count": 2, "name": "Half Moon Bay Yacht Club Inc", "url": "https://www.yelp.com/biz/half-moon-bay-yacht-club-inc-half-moon-bay?adjust_creative=Ac1Jga9ln_zF96nUd9t7WA&utm_campaign=yelp_api_v3&utm_medium=api_v3_business_search&utm_source=Ac1Jga9ln_zF96nUd9t7WA", "transactions": [], "coordinates": {"latitude": 37.50315, "longitude": -122.490943}, "phone": "+16507282120", "image_url": "https://s3-media4.fl.yelpcdn.com/bphoto/I4rJnl7FbKVwHaME7j-0wA/o.jpg", "is_closed": false, "display_phone": "(650) 728-2120", "time_spent_minutes": 180, "id": "half-moon-bay-yacht-club-inc-half-moon-bay", "categories": [{"alias": "social_clubs", "title": "Social Clubs"}, {"alias": "boating", "title": "Boating"}], "location": {"city": "Half Moon Bay", "display_address": ["214 Princeton Ave", "Half Moon Bay, CA 94019"], "country": "US", "address2": "", "address3": "", "state": "CA", "address1": "214 Princeton Ave", "zip_code": "94019"}}
{"rating": 4.0, "review_count": 200, "name": "Seacliff State Beach", "url": "https://www.yelp.com/biz/seacliff-state-beach-aptos?adjust_creative=Ac1Jga9ln_zF96nUd9t7WA&utm_campaign=yelp_api_v3&utm_medium=api_v3_business_search&utm_source=Ac1Jga9ln_zF96nUd9t7WA", "transactions": [], "coordinates": {"latitude": 36.9725582620962, "longitude": -121.912461519241}, "phone": "+18316856442", "image_url": "https://s3-media2.fl.yelpcdn.com/bphoto/Got0M_w7K3HIxsUHFgGZqA/o.jpg", "is_closed": false, "display_phone": "(831) 685-6442", "time_spent_minutes": 180, "id": "seacliff-state-beach-aptos", "categories": [{"alias": "parks", "title": "Parks"}, {"alias": "beaches", "title": "Beaches"}], "location": {"city": "Aptos", "display_address": ["State Park Dr", "Aptos, CA 95001"], "country": "US", "address2": null, "address3": "", "state": "CA", "address1": "State Park Dr", "zip_code": "95001"}}
{"rating": 4.0, "review_count": 461, "name": "Monterey Market", "transactions": [], "url": "https://www.yelp.com/biz/monterey-market-berkeley?adjust_creative=Ac1Jga9ln_zF96nUd9t7WA&utm_campaign=yelp_api_v3&utm_medium=api_v3_business_search&utm_source=Ac1Jga9ln_zF96nUd9t7WA", "price": "$", "location": {"city": "Berkeley", "display_address": ["1550 Hopkins St", "Berkeley, CA 94707"], "country": "US", "address2": "", "address3": "", "state": "CA", "address1": "1550 Hopkins St", "zip_code": "94707"}, "coordinates": {"latitude": 37.8811569213867, "longitude": -122.282089233398}, "phone": "+15105266042", "image_url": "https://s3-media2.fl.yelpcdn.com/bphoto/zx-1-dn287-Hv4S-n-bibQ/o.jpg", "is_closed": false, "display_phone": "(510) 526-6042", "time_spent_minutes": 180, "id": "monterey-market-berkeley", "categories": [{"alias": "markets", "title": "Fruits & Veggies"}, {"alias": "farmersmarket", "title": "Farmers Market"}]}
{"rating": 4.5, "review_count": 597, "name": "Rancho San Antonio Open Space Preserve", "url": "https://www.yelp.com/biz/rancho-san-antonio-open-space-preserve-los-altos?adjust_creative=Ac1Jga9ln_zF96nUd9t7WA&utm_campaign=yelp_api_v3&utm_medium=api_v3_business_search&utm_source=Ac1Jga9ln_zF96nUd9t7WA", "transactions": [], "coordinates": {"latitude": 37.3328785963655, "longitude": -122.087097792257}, "phone": "+16506911200", "image_url": "https://s3-media1.fl.yelpcdn.com/bphoto/v_bzlAyGmX4UW2R-I1CWpQ/o.jpg", "is_closed": false, "display_phone": "(650) 691-1200", "time_spent_minutes": 180, "id": "rancho-san-antonio-open-space-preserve-los-altos", "categories": [{"alias": "parks", "title": "Parks"}, {"alias": "hiking", "title": "Hiking"}], "location": {"city": "Los Altos", "display_address": ["22500 Cristo Rey Dr", "Los Altos, CA 94024"], "country": "US", "address2": null, "address3": "", "state": "CA", "address1": "22500 Cristo Rey Dr", "zip_code": "94024"}}
{"rating": 4.5, "review_count": 66, "name": "Allied Arts Guild", "url": "https://www.yelp.com/biz/allied-arts-guild-menlo-park-2?adjust_creative=Ac1Jga9ln_zF96nUd9t7WA&utm_campaign=yelp_api_v3&utm_medium=api_v3_business_search&utm_source=Ac1Jga9ln_zF96nUd9t7WA", "transactions": [], "coordinates": {"latitude": 37.44138, "longitude": -122.17885}, "phone": "+16503222405", "image_url": "https://s3-media4.fl.yelpcdn.com/bphoto/TGfPwr8R1fOjmhqUi_VA9w/o.jpg", "is_closed": false, "display_phone": "(650) 322-2405", "time_spent_minutes": 180, "id": "allied-arts-guild-menlo-park-2", "categories": [{"alias": "gardens", "title": "Botanical Gardens"}, {"alias": "venues", "title": "Venues & Event Spaces"}, {"alias": "wedding_planning", "title": "Wedding Planning"}], "location": {"city": "Menlo Park", "display_address": ["75 Arbor Rd", "Menlo Park, CA 94025"], "country": "US", "address2": "", "address3": "", "state": "CA", "address1": "75 Arbor Rd", "zip_code": "94025"}}
{"rating": 5.0, "review_count": 301, "name": "Grandview Park", "url": "https://www.yelp.com/biz/grandview-park-san-francisco?adjust_creative=Ac1Jga9ln_zF96nUd9t7WA&utm_campaign=yelp_api_v3&utm_medium=api_v3_business_search&utm_source=Ac1Jga9ln_zF96nUd9t7WA", "transactions": [], "coordinates": {"latitude": 37.7564069062467, "longitude": -122.471924048429}, "phone": "+14158316331", "image_url": "https://s3-media4.fl.yelpcdn.com/bphoto/bn70M2Ec0zw_ci_gPQR5Bw/o.jpg", "is_closed": false, "display_phone": "(415) 831-6331", "time_spent_minutes": 180, "id": "grandview-park-san-francisco", "categories": [{"alias": "parks", "title": "Parks"}, {"alias": "hiking", "title": "Hiking"}], "location": {"city": "San Francisco", "display_address": ["14TH Ave", "San Francisco, CA 94122"], "country": "US", "address2": "", "address3": "", "state": "CA", "address1": "14TH Ave", "zip_code": "94122"}}
{"rating": 5.0, "review_count": 83, "name": "Yards By Mike", "url": "https://www.yelp.com/biz/yards-by-mike-san-jose?adjust_creative=Ac1Jga9ln_zF96nUd9t7WA&utm_campaign=yelp_api_v3&utm_medium=api_v3_business_search&utm_source=Ac1Jga9ln_zF96nUd9t7WA", "transactions": [], "coordinates": {"latitude": 37.37884, "longitude": -121.83034}, "phone": "+14085093062", "image_url": "https://s3-media4.fl.yelpcdn.com/bphoto/S53N_g452GgojzMGeJhm6A/o.jpg", "is_closed": false, "display_phone": "(408) 509-3062", "time_spent_minutes": 180, "id": "yards-by-mike-san-jose", "categories": [{"alias": "gardeners", "title": "Gardeners"}], "location": {"city": "San Jose", "display_address": ["San Jose, CA 95127"], "country": "US", "address2": "", "address3": "", "state": "CA", "address1": "", "zip_code": "95127"}}
{"rating": 4.0, "review_count": 49, "name": "San Tomas Aquino Creek Trail", "url": "https://www.yelp.com/biz/san-tomas-aquino-creek-trail-santa-clara?adjust_creative=Ac1Jga9ln_zF96nUd9t7WA&utm_campaign=yelp_api_v3&utm_medium=api_v3_business_search&utm_source=Ac1Jga9ln_zF96nUd9t7WA", "transactions": [], "coordinates": {"latitude": 37.3669511375711, "longitude": -121.968755722046}, "phone": "", "image_url": "https://s3-media3.fl.yelpcdn.com/bphoto/wTjFgwRCSetHthWkE6s8wA/o.jpg", "is_closed": false, "display_phone": "", "time_spent_minutes": 180, "id": "san-tomas-aquino-creek-trail-santa-clara", "categories": [{"alias": "hiking", "title": "Hiking"}], "location": {"city": "Santa Clara", "display_address": ["San Tomas", "Santa Clara, CA 95051"], "country": "US", "address2": "", "address3": "", "state": "CA", "address1": "San Tomas", "zip_code": "95051"}}
{"rating": 4.5, "review_count": 10, "name": "Viet's Landscaping", "url": "https://www.yelp.com/biz/viets-landscaping-san-francisco-2?adjust_creative=Ac1Jga9ln_zF96nUd9t7WA&utm_campaign=yelp_api_v3&utm_medium=api_v3_business_search&utm_source=Ac1Jga9ln_zF96nUd9t7WA", "transactions": [], "coordinates": {"latitude": 37.7443923950195, "longitude": -122.479042053223}, "phone": "+14158230647", "image_url": "https://s3-media1.fl.yelpcdn.com/bphoto/IQxe1sDY4sqpThsf1PgA4g/o.jpg", "is_closed": false, "display_phone": "(415) 823-0647", "time_spent_minutes": 180, "id": "viets-landscaping-san-francisco-2", "categories": [{"alias": "landscaping", "title": "Landscaping"}, {"alias": "gardeners", "title": "Gardeners"}], "location": {"city": "San Francisco", "display_address": ["San Francisco, CA 94116"], "country": "US", "address2": "", "address3": "", "state": "CA", "address1": "", "zip_code": "94116"}}
