{"rating": 3.5, "review_count": 2402, "name": "Gott's Roadside", "transactions": ["delivery", "pickup"], "url": "https://www.yelp.com/biz/gotts-roadside-san-francisco-2?adjust_creative=Ac1Jga9ln_zF96nUd9t7WA&utm_campaign=yelp_api_v3&utm_medium=api_v3_business_search&utm_source=Ac1Jga9ln_zF96nUd9t7WA", "price": "$$", "location": {"city": "San Francisco", "display_address": ["1 Ferry Bldg", "San Francisco, CA 94111"], "country": "US", "address2": "", "address3": "", "state": "CA", "address1": "1 Ferry Bldg", "zip_code": "94111"}, "coordinates": {"latitude": 37.7960849485032, "longitude": -122.394304275513}, "phone": "+14153183423", "image_url": "https://s3-media1.fl.yelpcdn.com/bphoto/cl_GX_UvSny84ujWtV4cMw/o.jpg", "is_closed": false, "display_phone": "(415) 318-3423", "id": "gotts-roadside-san-francisco-2", "categories": [{"alias": "burgers", "title": "Burgers"}, {"alias": "seafood", "title": "Seafood"}, {"alias": "sandwiches", "title": "Sandwiches"}]}
{"rating": 5.0, "review_count": 750, "name": "Crissy Field Center", "url": "https://www.yelp.com/biz/crissy-field-center-san-francisco-2?adjust_creative=Ac1Jga9ln_zF96nUd9t7WA&utm_campaign=yelp_api_v3&utm_medium=api_v3_business_search&utm_source=Ac1Jga9ln_zF96nUd9t7WA", "transactions": [], "coordinates": {"latitude": 37.8060549, "longitude": -122.4491638}, "phone": "+14155617752", "image_url": "https://s3-media2.fl.yelpcdn.com/bphoto/YwRZZ3tMcY3NZM8rriIERw/o.jpg", "is_closed": false, "display_phone": "(415) 561-7752", "id": "crissy-field-center-san-francisco-2", "categories": [{"alias": "parks", "title": "Parks"}, {"alias": "beaches", "title": "Beaches"}, {"alias": "hiking", "title": "Hiking"}], "location": {"city": "San Francisco", "display_address": ["1199 East Beach", "San Francisco, CA 94129"], "country": "US", "address2": "", "address3": "", "state": "CA", "address1": "1199 East Beach", "zip_code": "94129"}}
{"rating": 5.0, "review_count": 305, "name": "Foodie Adventures", "url": "https://www.yelp.com/biz/foodie-adventures-san-francisco?adjust_creative=Ac1Jga9ln_zF96nUd9t7WA&utm_campaign=yelp_api_v3&utm_medium=api_v3_business_search&utm_source=Ac1Jga9ln_zF96nUd9t7WA", "transactions": [], "coordinates": {"latitude": 37.7893867492676, "longitude": -122.405731201172}, "phone": "+18884982008", "image_url": "https://s3-media4.fl.yelpcdn.com/bphoto/mQ9ldCl0-TaZ607lkVmvag/o.jpg", "is_closed": false, "display_phone": "(888) 498-2008", "id": "foodie-adventures-san-francisco", "categories": [{"alias": "foodtours", "title": "Food Tours"}], "location": {"city": "San Francisco", "display_address": ["315 Sutter St", "Fl 3", "San Francisco, CA 94108"], "country": "US", "address2": "Fl 3", "address3": "", "state": "CA", "address1": "315 Sutter St", "zip_code": "94108"}}
{"rating": 4.5, "review_count": 167, "name": "Ghirardelli Factory Outlet", "transactions": [], "url": "https://www.yelp.com/biz/ghirardelli-factory-outlet-san-leandro?adjust_creative=Ac1Jga9ln_zF96nUd9t7WA&utm_campaign=yelp_api_v3&utm_medium=api_v3_business_search&utm_source=Ac1Jga9ln_zF96nUd9t7WA", "price": "$", "location": {"city": "San Leandro", "display_address": ["1111 139th Ave", "San Leandro, CA 94578"], "country": "US", "address2": "", "address3": "", "state": "CA", "address1": "1111 139th Ave", "zip_code": "94578"}, "coordinates": {"latitude": 37.71111, "longitude": -122.14481}, "phone": "+15103463146", "image_url": "https://s3-media1.fl.yelpcdn.com/bphoto/50VvyBqZ_UMSxqcmBIkzXg/o.jpg", "is_closed": false, "display_phone": "(510) 346-3146", "id": "ghirardelli-factory-outlet-san-leandro", "categories": [{"alias": "chocolate", "title": "Chocolatiers & Shops"}]}
