{"rating": 4.0, "review_count": 252, "name": "Del Popolo", "transactions": [], "url": "https://www.yelp.com/biz/del-popolo-san-francisco-3?adjust_creative=Ac1Jga9ln_zF96nUd9t7WA&utm_campaign=yelp_api_v3&utm_medium=api_v3_business_search&utm_source=Ac1Jga9ln_zF96nUd9t7WA", "price": "$$", "location": {"city": "San Francisco", "display_address": ["855 Bush St", "San Francisco, CA 94108"], "country": "US", "address2": "", "address3": "", "state": "CA", "address1": "855 Bush St", "zip_code": "94108"}, "coordinates": {"latitude": 37.789627, "longitude": -122.411374}, "phone": "+14155897940", "image_url": "https://s3-media3.fl.yelpcdn.com/bphoto/VDbLG5ki93ba2Gwktnm_8g/o.jpg", "is_closed": false, "display_phone": "(415) 589-7940", "id": "del-popolo-san-francisco-3", "categories": [{"alias": "pizza", "title": "Pizza"}]}
{"rating": 4.0, "review_count": 685, "name": "InterContinental San Francisco", "transactions": [], "url": "https://www.yelp.com/biz/intercontinental-san-francisco-san-francisco?adjust_creative=Ac1Jga9ln_zF96nUd9t7WA&utm_campaign=yelp_api_v3&utm_medium=api_v3_business_search&utm_source=Ac1Jga9ln_zF96nUd9t7WA", "price": "$$$", "location": {"city": "San Francisco", "display_address": ["888 Howard St", "San Francisco, CA 94103"], "country": "US", "address2": "", "address3": "", "state": "CA", "address1": "888 Howard St", "zip_code": "94103"}, "coordinates": {"latitude": 37.7816711247802, "longitude": -122.404625415802}, "phone": "+14156166500", "image_url": "https://s3-media3.fl.yelpcdn.com/bphoto/_tDSzm3p4AV9yAwo8Q_qvg/o.jpg", "is_closed": false, "display_phone": "(415) 616-6500", "id": "intercontinental-san-francisco-san-francisco", "categories": [{"alias": "hotels", "title": "Hotels"}, {"alias": "venues", "title": "Venues & Event Spaces"}]}
{"rating": 4.5, "review_count": 215, "name": "Half Moon Bay Kayak Company", "url": "https://www.yelp.com/biz/half-moon-bay-kayak-company-half-moon-bay?adjust_creative=Ac1Jga9ln_zF96nUd9t7WA&utm_campaign=yelp_api_v3&utm_medium=api_v3_business_search&utm_source=Ac1Jga9ln_zF96nUd9t7WA", "transactions": [], "coordinates": {"latitude": 37.5037468, "longitude": -122.4815516}, "phone": "+16507736101", "image_url": "https://s3-media4.fl.yelpcdn.com/bphoto/NCyxSHu7TIxOKSUkSwu2Yw/o.jpg", "is_closed": false, "display_phone": "(650) 773-6101", "id": "half-moon-bay-kayak-company-half-moon-bay", "categories": [{"alias": "rafting", "title": "Rafting/Kayaking"}], "location": {"city": "Half Moon Bay", "display_address": ["2 Johnson Pier", "Half Moon Bay, CA 94019"], "country": "US", "address2": "", "address3": "", "state": "CA", "address1": "2 Johnson Pier", "zip_code": "94019"}}
{"rating": 4.5, "review_count": 67, "name": "Viader Vineyards & Winery", "transactions": [], "url": "https://www.yelp.com/biz/viader-vineyards-and-winery-deer-park?adjust_creative=Ac1Jga9ln_zF96nUd9t7WA&utm_campaign=yelp_api_v3&utm_medium=api_v3_business_search&utm_source=Ac1Jga9ln_zF96nUd9t7WA", "price": "$$$", "location": {"city": "Deer Park", "display_address": ["1120 Deer Park Rd", "Deer Park, CA 94576"], "country": "US", "address2": "", "address3": "", "state": "CA", "address1": "1120 Deer Park Rd", "zip_code": "94576"}, "coordinates": {"latitude": 38.56007, "longitude": -122.47714}, "phone": "+17079633816", "image_url": "https://s3-media4.fl.yelpcdn.com/bphoto/581VTFhgaUU6qLG5OPVoeA/o.jpg", "is_closed": false, "display_phone": "(707) 963-3816", "id": "viader-vineyards-and-winery-deer-park", "categories": [{"alias": "winetours", "title": "Wine Tours"}, {"alias": "winetastingroom", "title": "Wine Tasting Room"}]}
{"rating": 4.5, "review_count": 307, "name": "von Strasser and Lava Vine Winery", "transactions": [], "url": "https://www.yelp.com/biz/von-strasser-and-lava-vine-winery-calistoga-2?adjust_creative=Ac1Jga9ln_zF96nUd9t7WA&utm_campaign=yelp_api_v3&utm_medium=api_v3_business_search&utm_source=Ac1Jga9ln_zF96nUd9t7WA", "price": "$$", "location": {"city": "Calistoga", "display_address": ["965 Silverado Trl", "Calistoga, CA 94515"], "country": "US", "address2": "", "address3": "", "state": "CA", "address1": "965 Silverado Trl", "zip_code": "94515"}, "coordinates": {"latitude": 38.5873611, "longitude": -122.5750066}, "phone": "+17079429500", "image_url": "https://s3-media4.fl.yelpcdn.com/bphoto/Cf1dkM7-7sTmaoM_nxEKag/o.jpg", "is_closed": false, "display_phone": "(707) 942-9500", "id": "von-strasser-and-lava-vine-winery-calistoga-2", "categories": [{"alias": "winetastingroom", "title": "Wine Tasting Room"}]}
{"rating": 3.5, "review_count": 651, "name": "Luce", "transactions": [], "url": "https://www.yelp.com/biz/luce-san-francisco?adjust_creative=Ac1Jga9ln_zF96nUd9t7WA&utm_campaign=yelp_api_v3&utm_medium=api_v3_business_search&utm_source=Ac1Jga9ln_zF96nUd9t7WA", "price": "$$$", "location": {"city": "San Francisco", "display_address": ["888 Howard St", "San Francisco, CA 94103"], "country": "US", "address2": "", "address3": "", "state": "CA", "address1": "888 Howard St", "zip_code": "94103"}, "coordinates": {"latitude": 37.7820272648854, "longitude": -122.404410839081}, "phone": "+14156166566", "image_url": "https://s3-media1.fl.yelpcdn.com/bphoto/yf90z7Fo0PRiJ5Utghsk9w/o.jpg", "is_closed": false, "display_phone": "(415) 616-6566", "id": "luce-san-francisco", "categories": [{"alias": "newamerican", "title": "American (New)"}, {"alias": "desserts", "title": "Desserts"}, {"alias": "wine_bars", "title": "Wine Bars"}]}
{"rating": 5.0, "review_count": 208, "name": "Twenty Rows & Vinoce Tasting Room", "transactions": ["restaurant_reservation"], "url": "https://www.yelp.com/biz/twenty-rows-and-vinoce-tasting-room-napa?adjust_creative=Ac1Jga9ln_zF96nUd9t7WA&utm_campaign=yelp_api_v3&utm_medium=api_v3_business_search&utm_source=Ac1Jga9ln_zF96nUd9t7WA", "price": "$$", "location": {"city": "Napa", "display_address": ["880 Vallejo St", "Napa, CA 94559"], "country": "US", "address2": null, "address3": "", "state": "CA", "address1": "880 Vallejo St", "zip_code": "94559"}, "coordinates": {"latitude": 38.3046, "longitude": -122.28697}, "phone": "+17072657750", "image_url": "https://s3-media2.fl.yelpcdn.com/bphoto/X8YdqK5LTF9BKDj-JCqVzQ/o.jpg", "is_closed": false, "display_phone": "(707) 265-7750", "id": "twenty-rows-and-vinoce-tasting-room-napa", "categories": [{"alias": "winetastingroom", "title": "Wine Tasting Room"}]}
{"rating": 5.0, "review_count": 23, "name": "California Sister Floral Design & Supply", "transactions": [], "url": "https://www.yelp.com/biz/california-sister-floral-design-and-supply-sebastopol?adjust_creative=Ac1Jga9ln_zF96nUd9t7WA&utm_campaign=yelp_api_v3&utm_medium=api_v3_business_search&utm_source=Ac1Jga9ln_zF96nUd9t7WA", "price": "$$$", "location": {"city": "Sebastopol", "display_address": ["6790 Mckinley St", "Ste 190", "Sebastopol, CA 95472"], "country": "US", "address2": "Ste 190", "address3": "", "state": "CA", "address1": "6790 Mckinley St", "zip_code": "95472"}, "coordinates": {"latitude": 38.4043807983398, "longitude": -122.821815490723}, "phone": "+17078278090", "image_url": "https://s3-media3.fl.yelpcdn.com/bphoto/wQhqmzuYTwMImcuoAN_vKQ/o.jpg", "is_closed": false, "display_phone": "(707) 827-8090", "id": "california-sister-floral-design-and-supply-sebastopol", "categories": [{"alias": "florists", "title": "Florists"}, {"alias": "homedecor", "title": "Home Decor"}, {"alias": "wedding_planning", "title": "Wedding Planning"}]}
{"rating": 4.0, "review_count": 1130, "name": "Artesa Vineyards & Winery", "transactions": [], "url": "https://www.yelp.com/biz/artesa-vineyards-and-winery-napa-2?adjust_creative=Ac1Jga9ln_zF96nUd9t7WA&utm_campaign=yelp_api_v3&utm_medium=api_v3_business_search&utm_source=Ac1Jga9ln_zF96nUd9t7WA", "price": "$$", "location": {"city": "Napa", "display_address": ["1345 Henry Rd", "Napa, CA 94558"], "country": "US", "address2": "", "address3": "", "state": "CA", "address1": "1345 Henry Rd", "zip_code": "94558"}, "coordinates": {"latitude": 38.2691599380148, "longitude": -122.355366903427}, "phone": "+17072241668", "image_url": "https://s3-media4.fl.yelpcdn.com/bphoto/2qBLgzrBF3tMCRYO9wCcTA/o.jpg", "is_closed": false, "display_phone": "(707) 224-1668", "id": "artesa-vineyards-and-winery-napa-2", "categories": [{"alias": "winetastingroom", "title": "Wine Tasting Room"}]}
{"rating": 4.0, "review_count": 935, "name": "Mumm Napa", "transactions": [], "url": "https://www.yelp.com/biz/mumm-napa-napa-5?adjust_creative=Ac1Jga9ln_zF96nUd9t7WA&utm_campaign=yelp_api_v3&utm_medium=api_v3_business_search&utm_source=Ac1Jga9ln_zF96nUd9t7WA", "price": "$$", "location": {"city": "Napa", "display_address": ["8445 Silverado Trl", "Napa, CA 94558"], "country": "US", "address2": "", "address3": "", "state": "CA", "address1": "8445 Silverado Trl", "zip_code": "94558"}, "coordinates": {"latitude": 38.478891, "longitude": -122.393855}, "phone": "+17079677700", "image_url": "https://s3-media3.fl.yelpcdn.com/bphoto/qVH2y0E2DgsKpyEXabuoaQ/o.jpg", "is_closed": false, "display_phone": "(707) 967-7700", "id": "mumm-napa-napa-5", "categories": [{"alias": "winetastingroom", "title": "Wine Tasting Room"}]}
{"rating": 3.5, "review_count": 315, "name": "Handlery Union Square Hotel", "transactions": [], "url": "https://www.yelp.com/biz/handlery-union-square-hotel-san-francisco?adjust_creative=Ac1Jga9ln_zF96nUd9t7WA&utm_campaign=yelp_api_v3&utm_medium=api_v3_business_search&utm_source=Ac1Jga9ln_zF96nUd9t7WA", "price": "$$", "location": {"city": "San Francisco", "display_address": ["351 Geary St", "San Francisco, CA 94102"], "country": "US", "address2": "", "address3": "", "state": "CA", "address1": "351 Geary St", "zip_code": "94102"}, "coordinates": {"latitude": 37.7870953, "longitude": -122.4089792}, "phone": "+14157817800", "image_url": "https://s3-media1.fl.yelpcdn.com/bphoto/8S23kKm20RSd8tSf5x9v7w/o.jpg", "is_closed": false, "display_phone": "(415) 781-7800", "id": "handlery-union-square-hotel-san-francisco", "categories": [{"alias": "hotels", "title": "Hotels"}]}
{"rating": 4.5, "review_count": 113, "name": "Kuleto Estate", "transactions": [], "url": "https://www.yelp.com/biz/kuleto-estate-saint-helena?adjust_creative=Ac1Jga9ln_zF96nUd9t7WA&utm_campaign=yelp_api_v3&utm_medium=api_v3_business_search&utm_source=Ac1Jga9ln_zF96nUd9t7WA", "price": "$$$", "location": {"city": "Saint Helena", "display_address": ["2470 Sage Canyon Rd", "Saint Helena, CA 94574"], "country": "US", "address2": "", "address3": "", "state": "CA", "address1": "2470 Sage Canyon Rd", "zip_code": "94574"}, "coordinates": {"latitude": 38.4901221968622, "longitude": -122.329227678463}, "phone": "+17073022209", "image_url": "https://s3-media4.fl.yelpcdn.com/bphoto/FK-wgaDsbQALeJG2bnsEMw/o.jpg", "is_closed": false, "display_phone": "(707) 302-2209", "id": "kuleto-estate-saint-helena", "categories": [{"alias": "winetastingroom", "title": "Wine Tasting Room"}]}
{"rating": 4.5, "review_count": 137, "name": "Yoda Fountain at Lucasfilm", "url": "https://www.yelp.com/biz/yoda-fountain-at-lucasfilm-san-francisco?adjust_creative=Ac1Jga9ln_zF96nUd9t7WA&utm_campaign=yelp_api_v3&utm_medium=api_v3_business_search&utm_source=Ac1Jga9ln_zF96nUd9t7WA", "transactions": [], "coordinates": {"latitude": 37.7988102455024, "longitude": -122.450480823059}, "phone": "", "image_url": "https://s3-media2.fl.yelpcdn.com/bphoto/6R4wF-1aG-c1kvxZc1NtCA/o.jpg", "is_closed": false, "display_phone": "", "id": "yoda-fountain-at-lucasfilm-san-francisco", "categories": [{"alias": "landmarks", "title": "Landmarks & Historical Buildings"}], "location": {"city": "San Francisco", "display_address": ["1 Letterman Dr", "The Presidio", "San Francisco, CA 94129"], "country": "US", "address2": "", "address3": "The Presidio", "state": "CA", "address1": "1 Letterman Dr", "zip_code": "94129"}}
{"rating": 4.0, "review_count": 13, "name": "HydroLogic Pure Water Center", "url": "https://www.yelp.com/biz/hydrologic-pure-water-center-sebastopol-6?adjust_creative=Ac1Jga9ln_zF96nUd9t7WA&utm_campaign=yelp_api_v3&utm_medium=api_v3_business_search&utm_source=Ac1Jga9ln_zF96nUd9t7WA", "transactions": [], "coordinates": {"latitude": 38.406312, "longitude": -122.820544}, "phone": "+17078299447", "image_url": "https://s3-media1.fl.yelpcdn.com/bphoto/y0FhJHm0bxi09HkhgLBDow/o.jpg", "is_closed": false, "display_phone": "(707) 829-9447", "id": "hydrologic-pure-water-center-sebastopol-6", "categories": [{"alias": "waterpurification", "title": "Water Purification Services"}], "location": {"city": "Sebastopol", "display_address": ["380 Morris St", "Ste G", "Sebastopol, CA 95472"], "country": "US", "address2": "Ste G", "address3": "", "state": "CA", "address1": "380 Morris St", "zip_code": "95472"}}
{"rating": 4.0, "review_count": 2282, "name": "Marlowe", "transactions": ["restaurant_reservation"], "url": "https://www.yelp.com/biz/marlowe-san-francisco-2?adjust_creative=Ac1Jga9ln_zF96nUd9t7WA&utm_campaign=yelp_api_v3&utm_medium=api_v3_business_search&utm_source=Ac1Jga9ln_zF96nUd9t7WA", "price": "$$", "location": {"city": "San Francisco", "display_address": ["500 Brannan St", "San Francisco, CA 94107"], "country": "US", "address2": "", "address3": "", "state": "CA", "address1": "500 Brannan St", "zip_code": "94107"}, "coordinates": {"latitude": 37.7783200510611, "longitude": -122.396771288052}, "phone": "+14157771413", "image_url": "https://s3-media3.fl.yelpcdn.com/bphoto/uweSiOf0XBB4BPk_ibHVyg/o.jpg", "is_closed": false, "display_phone": "(415) 777-1413", "id": "marlowe-san-francisco-2", "categories": [{"alias": "newamerican", "title": "American (New)"}, {"alias": "brasseries", "title": "Brasseries"}]}
{"rating": 4.0, "review_count": 135, "name": "Whitewater Adventures", "url": "https://www.yelp.com/biz/whitewater-adventures-sacramento?adjust_creative=Ac1Jga9ln_zF96nUd9t7WA&utm_campaign=yelp_api_v3&utm_medium=api_v3_business_search&utm_source=Ac1Jga9ln_zF96nUd9t7WA", "transactions": [], "coordinates": {"latitude": 38.5820732116699, "longitude": -121.495582580566}, "phone": "+18009774837", "image_url": "https://s3-media4.fl.yelpcdn.com/bphoto/uiajR8LoZxS-AYPe-emukw/o.jpg", "is_closed": false, "display_phone": "(800) 977-4837", "id": "whitewater-adventures-sacramento", "categories": [{"alias": "rafting", "title": "Rafting/Kayaking"}], "location": {"city": "Sacramento", "display_address": ["Sacramento, CA 95812"], "country": "US", "address2": "", "address3": "", "state": "CA", "address1": "", "zip_code": "95812"}}
{"rating": 4.0, "review_count": 502, "name": "Del Dotto", "transactions": [], "url": "https://www.yelp.com/biz/del-dotto-napa?adjust_creative=Ac1Jga9ln_zF96nUd9t7WA&utm_campaign=yelp_api_v3&utm_medium=api_v3_business_search&utm_source=Ac1Jga9ln_zF96nUd9t7WA", "price": "$$$", "location": {"city": "Napa", "display_address": ["1055 Atlas Peak Rd", "Napa, CA 94558"], "country": "US", "address2": "", "address3": "", "state": "CA", "address1": "1055 Atlas Peak Rd", "zip_code": "94558"}, "coordinates": {"latitude": 38.338826, "longitude": -122.262071}, "phone": "+17079632134", "image_url": "https://s3-media4.fl.yelpcdn.com/bphoto/rm4oZCHgbROKZeiGivumNw/o.jpg", "is_closed": false, "display_phone": "(707) 963-2134", "id": "del-dotto-napa", "categories": [{"alias": "winetastingroom", "title": "Wine Tasting Room"}]}
{"rating": 4.0, "review_count": 2116, "name": "Samovar Tea Lounge", "transactions": ["pickup", "restaurant_reservation"], "url": "https://www.yelp.com/biz/samovar-tea-lounge-san-francisco-2?adjust_creative=Ac1Jga9ln_zF96nUd9t7WA&utm_campaign=yelp_api_v3&utm_medium=api_v3_business_search&utm_source=Ac1Jga9ln_zF96nUd9t7WA", "price": "$$", "location": {"city": "San Francisco", "display_address": ["730 Howard St", "Yerba Buena Gardens", "San Francisco, CA 94103"], "country": "US", "address2": "", "address3": "Yerba Buena Gardens", "state": "CA", "address1": "730 Howard St", "zip_code": "94103"}, "coordinates": {"latitude": 37.7841774486315, "longitude": -122.402068620684}, "phone": "+14152279400", "image_url": "https://s3-media2.fl.yelpcdn.com/bphoto/Lih-sSjqA9-pv0xAuuh7GA/o.jpg", "is_closed": false, "display_phone": "(415) 227-9400", "id": "samovar-tea-lounge-san-francisco-2", "categories": [{"alias": "tea", "title": "Tea Rooms"}, {"alias": "gluten_free", "title": "Gluten-Free"}]}
{"rating": 4.5, "review_count": 731, "name": "Cline Cellars", "transactions": [], "url": "https://www.yelp.com/biz/cline-cellars-sonoma-2?adjust_creative=Ac1Jga9ln_zF96nUd9t7WA&utm_campaign=yelp_api_v3&utm_medium=api_v3_business_search&utm_source=Ac1Jga9ln_zF96nUd9t7WA", "price": "$$", "location": {"city": "Sonoma", "display_address": ["24737 Arnold Dr", "Sonoma, CA 95476"], "country": "US", "address2": "", "address3": "", "state": "CA", "address1": "24737 Arnold Dr", "zip_code": "95476"}, "coordinates": {"latitude": 38.2140168170748, "longitude": -122.457671481384}, "phone": "+17079404030", "image_url": "https://s3-media4.fl.yelpcdn.com/bphoto/z6sAtn6Vs1B0PR2nbKatYA/o.jpg", "is_closed": false, "display_phone": "(707) 940-4030", "id": "cline-cellars-sonoma-2", "categories": [{"alias": "winetastingroom", "title": "Wine Tasting Room"}, {"alias": "venues", "title": "Venues & Event Spaces"}]}
{"rating": 4.0, "review_count": 1389, "name": "Park Tavern", "transactions": [], "url": "https://www.yelp.com/biz/park-tavern-san-francisco?adjust_creative=Ac1Jga9ln_zF96nUd9t7WA&utm_campaign=yelp_api_v3&utm_medium=api_v3_business_search&utm_source=Ac1Jga9ln_zF96nUd9t7WA", "price": "$$$", "location": {"city": "San Francisco", "display_address": ["1652 Stockton St", "San Francisco, CA 94133"], "country": "US", "address2": "", "address3": "", "state": "CA", "address1": "1652 Stockton St", "zip_code": "94133"}, "coordinates": {"latitude": 37.80113, "longitude": -122.409}, "phone": "+14159897300", "image_url": "https://s3-media3.fl.yelpcdn.com/bphoto/lA6DrEJD_oAPv1ZeBjGJfg/o.jpg", "is_closed": false, "display_phone": "(415) 989-7300", "id": "park-tavern-san-francisco", "categories": [{"alias": "newamerican", "title": "American (New)"}, {"alias": "breakfast_brunch", "title": "Breakfast & Brunch"}]}
{"rating": 5.0, "review_count": 302, "name": "Lyon Street Steps", "url": "https://www.yelp.com/biz/lyon-street-steps-san-francisco?adjust_creative=Ac1Jga9ln_zF96nUd9t7WA&utm_campaign=yelp_api_v3&utm_medium=api_v3_business_search&utm_source=Ac1Jga9ln_zF96nUd9t7WA", "transactions": [], "coordinates": {"latitude": 37.79469, "longitude": -122.44675}, "phone": "", "image_url": "https://s3-media2.fl.yelpcdn.com/bphoto/_DKoiEA7UfkF8t0KV-SnqA/o.jpg", "is_closed": false, "display_phone": "", "id": "lyon-street-steps-san-francisco", "categories": [{"alias": "localflavor", "title": "Local Flavor"}], "location": {"city": "San Francisco", "display_address": ["Lyon Street & Green St", "San Francisco, CA 94123"], "country": "US", "address2": "", "address3": "", "state": "CA", "address1": "Lyon Street & Green St", "zip_code": "94123"}}
{"rating": 4.0, "review_count": 127, "name": "Sub Zero Ice Cream & Yogurt", "transactions": [], "url": "https://www.yelp.com/biz/sub-zero-ice-cream-and-yogurt-sebastopol-3?adjust_creative=Ac1Jga9ln_zF96nUd9t7WA&utm_campaign=yelp_api_v3&utm_medium=api_v3_business_search&utm_source=Ac1Jga9ln_zF96nUd9t7WA", "price": "$$", "location": {"city": "Sebastopol", "display_address": ["6760 Mckinley St", "Ste 110", "Sebastopol, CA 95472"], "country": "US", "address2": "Ste 110", "address3": "", "state": "CA", "address1": "6760 Mckinley St", "zip_code": "95472"}, "coordinates": {"latitude": 38.404261545703, "longitude": -122.820151082035}, "phone": "+17078239376", "image_url": "https://s3-media4.fl.yelpcdn.com/bphoto/ip_w-7C8gfXQ7vGqMQ8_ow/o.jpg", "is_closed": false, "display_phone": "(707) 823-9376", "id": "sub-zero-ice-cream-and-yogurt-sebastopol-3", "categories": [{"alias": "desserts", "title": "Desserts"}, {"alias": "icecream", "title": "Ice Cream & Frozen Yogurt"}]}
{"rating": 4.5, "review_count": 174, "name": "Five Star Truffles Co.", "transactions": ["pickup"], "url": "https://www.yelp.com/biz/five-star-truffles-co-san-francisco?adjust_creative=Ac1Jga9ln_zF96nUd9t7WA&utm_campaign=yelp_api_v3&utm_medium=api_v3_business_search&utm_source=Ac1Jga9ln_zF96nUd9t7WA", "price": "$", "location": {"city": "San Francisco", "display_address": ["4251 A 18th St", "San Francisco, CA 94114"], "country": "US", "address2": null, "address3": "", "state": "CA", "address1": "4251 A 18th St", "zip_code": "94114"}, "coordinates": {"latitude": 37.76058, "longitude": -122.43693}, "phone": "+14155525128", "image_url": "https://s3-media4.fl.yelpcdn.com/bphoto/SuNQSMRamNFyTBS11GaKQA/o.jpg", "is_closed": false, "display_phone": "(415) 552-5128", "id": "five-star-truffles-co-san-francisco", "categories": [{"alias": "coffee", "title": "Coffee & Tea"}, {"alias": "chocolate", "title": "Chocolatiers & Shops"}]}
{"rating": 5.0, "review_count": 9, "name": "Tamarind Clothing", "transactions": [], "url": "https://www.yelp.com/biz/tamarind-clothing-sebastopol?adjust_creative=Ac1Jga9ln_zF96nUd9t7WA&utm_campaign=yelp_api_v3&utm_medium=api_v3_business_search&utm_source=Ac1Jga9ln_zF96nUd9t7WA", "price": "$$$", "location": {"city": "Sebastopol", "display_address": ["180 Morris St", "Ste 170", "Sebastopol, CA 95472"], "country": "US", "address2": "Ste 170", "address3": "", "state": "CA", "address1": "180 Morris St", "zip_code": "95472"}, "coordinates": {"latitude": 38.4041620908171, "longitude": -122.819520019049}, "phone": "+17078619513", "image_url": "https://s3-media1.fl.yelpcdn.com/bphoto/2Cu1pInImzVVsbooYP5mNw/o.jpg", "is_closed": false, "display_phone": "(707) 861-9513", "id": "tamarind-clothing-sebastopol", "categories": [{"alias": "accessories", "title": "Accessories"}, {"alias": "womenscloth", "title": "Women's Clothing"}]}
{"rating": 4.5, "review_count": 553, "name": "XOX Truffles", "transactions": [], "url": "https://www.yelp.com/biz/xox-truffles-san-francisco?adjust_creative=Ac1Jga9ln_zF96nUd9t7WA&utm_campaign=yelp_api_v3&utm_medium=api_v3_business_search&utm_source=Ac1Jga9ln_zF96nUd9t7WA", "price": "$", "location": {"city": "San Francisco", "display_address": ["754 Columbus Ave", "San Francisco, CA 94133"], "country": "US", "address2": "", "address3": "", "state": "CA", "address1": "754 Columbus Ave", "zip_code": "94133"}, "coordinates": {"latitude": 37.80175, "longitude": -122.41206}, "phone": "+14154214814", "image_url": "https://s3-media1.fl.yelpcdn.com/bphoto/IxBq38M_i7h3zUMjxDvvng/o.jpg", "is_closed": false, "display_phone": "(415) 421-4814", "id": "xox-truffles-san-francisco", "categories": [{"alias": "chocolate", "title": "Chocolatiers & Shops"}]}
{"rating": 4.0, "review_count": 147, "name": "Del Popolo", "transactions": [], "url": "https://www.yelp.com/biz/del-popolo-san-francisco-8?adjust_creative=Ac1Jga9ln_zF96nUd9t7WA&utm_campaign=yelp_api_v3&utm_medium=api_v3_business_search&utm_source=Ac1Jga9ln_zF96nUd9t7WA", "price": "$$", "location": {"city": "San Francisco", "display_address": ["San Francisco, CA 94108"], "country": "US", "address2": "", "address3": "", "state": "CA", "address1": "", "zip_code": "94108"}, "coordinates": {"latitude": 37.79063, "longitude": -122.40918}, "phone": "+14155897940", "image_url": "https://s3-media3.fl.yelpcdn.com/bphoto/vGA1gUz-POl2zYj3Htoemg/o.jpg", "is_closed": false, "display_phone": "(415) 589-7940", "id": "del-popolo-san-francisco-8", "categories": [{"alias": "pizza", "title": "Pizza"}, {"alias": "foodtrucks", "title": "Food Trucks"}]}
{"rating": 3.5, "review_count": 129, "name": "Audium - A Theatre of Sound-Sculptured Space", "url": "https://www.yelp.com/biz/audium-a-theatre-of-sound-sculptured-space-san-francisco?adjust_creative=Ac1Jga9ln_zF96nUd9t7WA&utm_campaign=yelp_api_v3&utm_medium=api_v3_business_search&utm_source=Ac1Jga9ln_zF96nUd9t7WA", "transactions": [], "coordinates": {"latitude": 37.78838, "longitude": -122.42387}, "phone": "+14157711616", "image_url": "https://s3-media4.fl.yelpcdn.com/bphoto/ju7Q4cwmkQ_iOYoNtJSlyA/o.jpg", "is_closed": false, "display_phone": "(415) 771-1616", "id": "audium-a-theatre-of-sound-sculptured-space-san-francisco", "categories": [{"alias": "theater", "title": "Performing Arts"}], "location": {"city": "San Francisco", "display_address": ["1616 Bush St", "San Francisco, CA 94109"], "country": "US", "address2": "", "address3": "", "state": "CA", "address1": "1616 Bush St", "zip_code": "94109"}}
{"rating": 4.0, "review_count": 103, "name": "Bouchaine Vineyards", "transactions": [], "url": "https://www.yelp.com/biz/bouchaine-vineyards-napa?adjust_creative=Ac1Jga9ln_zF96nUd9t7WA&utm_campaign=yelp_api_v3&utm_medium=api_v3_business_search&utm_source=Ac1Jga9ln_zF96nUd9t7WA", "price": "$$", "location": {"city": "Napa", "display_address": ["1075 Buchli Station Rd", "Napa, CA 94559"], "country": "US", "address2": "", "address3": "", "state": "CA", "address1": "1075 Buchli Station Rd", "zip_code": "94559"}, "coordinates": {"latitude": 38.22239, "longitude": -122.33396}, "phone": "+17072529065", "image_url": "https://s3-media2.fl.yelpcdn.com/bphoto/ki4QAFyQEHqx06UNPAwfnQ/o.jpg", "is_closed": false, "display_phone": "(707) 252-9065", "id": "bouchaine-vineyards-napa", "categories": [{"alias": "wineries", "title": "Wineries"}]}
{"rating": 3.5, "review_count": 1349, "name": "Winchester Mystery House", "url": "https://www.yelp.com/biz/winchester-mystery-house-san-jose?adjust_creative=Ac1Jga9ln_zF96nUd9t7WA&utm_campaign=yelp_api_v3&utm_medium=api_v3_business_search&utm_source=Ac1Jga9ln_zF96nUd9t7WA", "transactions": [], "coordinates": {"latitude": 37.3184298425885, "longitude": -121.951062964596}, "phone": "+14082472000", "image_url": "https://s3-media4.fl.yelpcdn.com/bphoto/AHzkgs9pFl43Cqqb_FkiNw/o.jpg", "is_closed": false, "display_phone": "(408) 247-2000", "id": "winchester-mystery-house-san-jose", "categories": [{"alias": "landmarks", "title": "Landmarks & Historical Buildings"}, {"alias": "tours", "title": "Tours"}, {"alias": "museums", "title": "Museums"}], "location": {"city": "San Jose", "display_address": ["525 S Winchester Blvd", "San Jose, CA 95128"], "country": "US", "address2": "", "address3": "", "state": "CA", "address1": "525 S Winchester Blvd", "zip_code": "95128"}}
{"rating": 4.0, "review_count": 832, "name": "The Cavalier", "transactions": [], "url": "https://www.yelp.com/biz/the-cavalier-san-francisco?adjust_creative=Ac1Jga9ln_zF96nUd9t7WA&utm_campaign=yelp_api_v3&utm_medium=api_v3_business_search&utm_source=Ac1Jga9ln_zF96nUd9t7WA", "price": "$$$", "location": {"city": "San Francisco", "display_address": ["360 Jessie St", "San Francisco, CA 94103"], "country": "US", "address2": "", "address3": "", "state": "CA", "address1": "360 Jessie St", "zip_code": "94103"}, "coordinates": {"latitude": 37.7833456546068, "longitude": -122.406836226583}, "phone": "+14153216000", "image_url": "https://s3-media4.fl.yelpcdn.com/bphoto/z_DtidD67I8MDI8YOUALOg/o.jpg", "is_closed": false, "display_phone": "(415) 321-6000", "id": "the-cavalier-san-francisco", "categories": [{"alias": "newamerican", "title": "American (New)"}, {"alias": "british", "title": "British"}, {"alias": "cocktailbars", "title": "Cocktail Bars"}]}
{"rating": 3.5, "review_count": 636, "name": "Gloria Ferrer Winery", "transactions": ["restaurant_reservation"], "url": "https://www.yelp.com/biz/gloria-ferrer-winery-sonoma?adjust_creative=Ac1Jga9ln_zF96nUd9t7WA&utm_campaign=yelp_api_v3&utm_medium=api_v3_business_search&utm_source=Ac1Jga9ln_zF96nUd9t7WA", "price": "$$", "location": {"city": "Sonoma", "display_address": ["23555 Hwy 121", "Sonoma, CA 95476"], "country": "US", "address2": "", "address3": "", "state": "CA", "address1": "23555 Hwy 121", "zip_code": "95476"}, "coordinates": {"latitude": 38.2278441794987, "longitude": -122.458550466132}, "phone": "+17072104756", "image_url": "https://s3-media2.fl.yelpcdn.com/bphoto/at4shht78TZV6ZVCExNz8A/o.jpg", "is_closed": false, "display_phone": "(707) 210-4756", "id": "gloria-ferrer-winery-sonoma", "categories": [{"alias": "wineries", "title": "Wineries"}]}
{"rating": 4.0, "review_count": 316, "name": "Stow Lake Boathouse", "transactions": [], "url": "https://www.yelp.com/biz/stow-lake-boathouse-san-francisco?adjust_creative=Ac1Jga9ln_zF96nUd9t7WA&utm_campaign=yelp_api_v3&utm_medium=api_v3_business_search&utm_source=Ac1Jga9ln_zF96nUd9t7WA", "price": "$$", "location": {"city": "San Francisco", "display_address": ["50 Stow Lake Dr", "San Francisco, CA 94118"], "country": "US", "address2": "", "address3": "", "state": "CA", "address1": "50 Stow Lake Dr", "zip_code": "94118"}, "coordinates": {"latitude": 37.77064, "longitude": -122.4771}, "phone": "+14153862531", "image_url": "https://s3-media2.fl.yelpcdn.com/bphoto/_O_rVLaN6BB1aa6Xt6faHg/o.jpg", "is_closed": false, "display_phone": "(415) 386-2531", "id": "stow-lake-boathouse-san-francisco", "categories": [{"alias": "boating", "title": "Boating"}, {"alias": "coffee", "title": "Coffee & Tea"}, {"alias": "venues", "title": "Venues & Event Spaces"}]}
{"rating": 4.5, "review_count": 847, "name": "Palace Of Fine Arts", "url": "https://www.yelp.com/biz/palace-of-fine-arts-san-francisco?adjust_creative=Ac1Jga9ln_zF96nUd9t7WA&utm_campaign=yelp_api_v3&utm_medium=api_v3_business_search&utm_source=Ac1Jga9ln_zF96nUd9t7WA", "transactions": [], "coordinates": {"latitude": 37.8041385, "longitude": -122.448286}, "phone": "+14156082220", "image_url": "https://s3-media2.fl.yelpcdn.com/bphoto/PVn-xdXgyjLf98JYPe10EQ/o.jpg", "is_closed": false, "display_phone": "(415) 608-2220", "id": "palace-of-fine-arts-san-francisco", "categories": [{"alias": "landmarks", "title": "Landmarks & Historical Buildings"}, {"alias": "venues", "title": "Venues & Event Spaces"}], "location": {"city": "San Francisco", "display_address": ["3601 Lyon St", "San Francisco, CA 94123"], "country": "US", "address2": "", "address3": "", "state": "CA", "address1": "3601 Lyon St", "zip_code": "94123"}}
